index,location,Lat,Lon
0,Jasoom,,
1,in the middle of the Rainforest!,,
2,Cambodia,12.565679,104.990963
3," Guelph, Ontario",43.5448048,-80.24816659999999
4,"Burbank, CA",34.1808392,-118.3089661
5,"Howell, MI",42.6072552,-83.9293952
6,Ottawa,45.4215296,-75.69719309999999
7,"North Carolina, USA",35.7595731,-79.01929969999999
8,Greater Vancouver,49.2501243,-123.0824217
9,"Colorado, USA",39.5500507,-105.7820674
10,NYC,40.7127753,-74.0059728
11,"Chesterfield, Virginia",37.3770935,-77.5049863
12,"Illinois, USA",40.6331249,-89.3985283
13,SW1,49.2509945,-123.0033198
14,New York,40.7127753,-74.0059728
15,Chicago,41.8781136,-87.6297982
16,"California, USA",36.778261,-119.4179324
17,"Sangareddy, India",17.6140077,78.08156269999999
18,"Whitby, ON",43.8975446,-78.94293290000002
19,New England,43.9653889,-70.8226541
20,Tahoe,39.0968493,-120.0323507
21,Baltimore MD Citizen 2012 ,39.2903848,-76.6121893
22,Santiago de Chile,-33.4488897,-70.6692655
23,Illinois,40.6331249,-89.3985283
24,Northeast Ohio,41.26178729999999,-81.1637245
25,Arizona,34.0489281,-111.0937311
26,United States,37.09024,-95.712891
27,USA,37.09024,-95.712891
28,"Mumbai, India",19.0759837,72.8776559
29,All Over The World,,
30,"The Hudson Valley, New York",41.9209018,-73.9612887
31,"Bhopal, India",23.2599333,77.412615
32,Lucknow,26.8466937,80.94616599999999
33,"Oakland, CA",37.8043514,-122.2711639
34,"St Petersburg, FL",27.7676008,-82.64029149999999
35,"Cape Town, South Africa",-33.9248685,18.4240553
36,"Newark, NJ",40.735657,-74.1723667
37,Bungoma,0.5695252,34.5583766
38,"Nairobi, Kenya",-1.2920659,36.8219462
39,"Sambalpur, India",21.4668716,83.9811665
40,she/her,37.0320193,-95.623423
41,"Jinja road, Industrial Area",0.3172992,32.5941599
42, The #UK 🇬🇧 and 🇪🇺 ,55.378051,-3.435973
43,"Table View, Cape Town",-33.8218337,18.491504
44,"Abuja, Nigeria",9.0764785,7.398574
45,"New Delhi, India",28.6139391,77.2090212
46,New York City,40.7127753,-74.0059728
47,"Suan Luang, Thailand",13.7355472,100.6409673
48,Earth/Matrix ,,
49,"Natchitoches, LA",31.7607195,-93.08627489999999
50,"Kampala, Uganda",0.3475964,32.5825197
51,"London, England",51.5073509,-0.1277583
52,Nigeria,9.081999,8.675277
53,"Soler 458, Ituzaingo, Bs. As.",-34.6560086,-58.669295
54,"Texas, USA",31.9685988,-99.9018131
55,Exo-Space,,
56,"New York, USA",40.7127753,-74.0059728
57,"Yonkers, NY",40.9312099,-73.89874689999999
58,ネット予約⬇️群馬県 高崎市江木町1502 ,36.3315345,139.0276541
59,Canada,56.130366,-106.346771
60,"Manchester, England",53.4807593,-2.2426305
61,New York Metro/ Hudson Valley Region,41.9209018,-73.9612887
62,"Medley, Florida",25.8406526,-80.3264404
63,Toronto,43.653226,-79.3831843
64,"Auderghem, Belgique",50.8164064,4.4265181
65,"Minneapolis, MN",44.977753,-93.2650108
66,"Surprise, AZ",33.6292337,-112.3679279
67,Kansas City,39.0997265,-94.5785667
68,LA,34.0522342,-118.2436849
69,"Whitefish, MT",48.4106373,-114.3352652
70,Scotland ,56.49067119999999,-4.2026458
71,"Lahore, Pakistan",31.5203696,74.35874729999999
72,"Toronto, Ontario",43.653226,-79.3831843
73,80207,39.7619439,-104.9213643
74,USA+LAHORE,31.533199,74.3792398
75,London City Island aka Eastend,51.5120022,0.0055131
76,"England, United Kingdom",52.3555177,-1.1743197
77,MANHATTAN,40.7830603,-73.9712488
78,"Venice, Florida (Paradise) 🏖",27.1100062,-82.42494150000002
79,"34,Parkstreet ,Kolkata 16",22.5486975,88.3572375
80,🌎,,
81,Tokyo,35.6761919,139.6503106
82,"Miami, FL",25.7616798,-80.1917902
83,🇬🇧🇪🇺warp records ,,
84,"Los Angeles, CA London UK ",34.0594689,-118.413944
85,Worldwide,40.0421401,-76.3888087
86,"New England, USA",43.9653889,-70.8226541
87,Between Ennui & Weltschmerz,,
88,"Boston, MA",42.3600825,-71.0588801
89,Massachusetts,42.4072107,-71.3824374
90,"Florida, USA",27.6648274,-81.5157535
91,"Oregon, USA",43.8041334,-120.5542012
92,Northern Ireland,54.7877149,-6.4923145
93,"Connecticut, USA",41.6032207,-73.087749
94,Crystal Lake IL,42.2411344,-88.31619649999999
95,"Salt lake city, Utah",40.7607793,-111.8910474
96,🇺🇸,,
97,"Washington, DC",38.9071923,-77.0368707
98,"Manhattan, NY",40.7830603,-73.9712488
99,"Bothell, WA",47.76011099999999,-122.2054452
100,South Africa,-30.559482,22.937506
101,Minneapolis,44.977753,-93.2650108
102,"Virginia, USA",37.4315734,-78.6568942
103,Vancouver,49.2827291,-123.1207375
104,Los Angeles,34.0522342,-118.2436849
105,USA*Mexico*Canada*France*MORE,,
106,"St. Louis, MO",38.6270025,-90.19940419999999
107,"Alabama, USA",32.3182314,-86.902298
108,"Bulawayo, Zimbabwe.",-20.1457125,28.5873388
109,"NY, NY USA",40.7127753,-74.0059728
110,"New York, NY",40.7127753,-74.0059728
111,"Oklahoma City, OK",35.4675602,-97.5164276
112,"Portland, Oregon",45.5051064,-122.6750261
113,"Hammond, Louisiana",30.5043583,-90.46119949999999
114,VA,36.0985705,-94.1571128
115,earth,37.2321077,-95.7243335
116,Western NewYork,43.3447295,-75.3878525
117,"Philadelphia, USA",39.9525839,-75.1652215
118,"Ohio, USA",40.4172871,-82.90712300000001
119,"Manhattan, Malibu",40.7059182,-74.0017501
120,"Province of Leningrad, Russia",60.0793208,31.8926645
121,"On the tundra in Rochester, Minnesota",43.9591064,-92.4639739
122,"Arizona, USA",34.0489281,-111.0937311
123,"Allahabad, India",25.4358011,81.846311
124,"Lucknow, India",26.8466937,80.94616599999999
125,"Amethi, India",26.1540538,81.814238
126,aburoad,24.4640731,72.7717775
127,"Gorakhpur, India",26.7605545,83.3731675
128,"Kunda, Pratapgarh उत्तर प्रदेश",25.717531,81.521241
129,"Pune University, India",18.5523618,73.826655
130,"Meerut, UP, INDIA",28.9844618,77.7064137
131,"Bhilwara, India",25.3407388,74.63131829999999
132,"Kota Surabaya, Jawa Timur",-7.2574719,112.7520883
133,up India (बाशिंदा बिहार का,26.8467088,80.9461592
134,Kent G.B. 🇬🇧,51.2787075,0.5217254000000001
135,Scotland,56.49067119999999,-4.2026458
136,"Uttar Pradesh, India",26.8467088,80.9461592
137,"Kolkata, India",22.572646,88.36389500000001
138,"FIROZABADUttar Pradesh, India",27.1591961,78.3957331
139,"Kaushambi, India",25.361054,81.40317069999999
140,Bhubaneswar,20.2960587,85.8245398
141,Philadelphia,39.9525839,-75.1652215
142,"Scienceville, NC",41.1136691,-80.61674049999999
143,"ÜT: 38.975121,-76.888847",30.2849185,-97.7340567
144,"Kentucky, USA",37.8393332,-84.2700179
145,"Gaithersburg, MD",39.1439689,-77.2016062
146,U.K.,55.378051,-3.435973
147,Noida,28.5355161,77.3910265
148,Ohio & Michigan,41.5811111,-83.545
149,"Hoboken, NJ",40.7439905,-74.0323626
150,The Gem State Idaho,44.0682019,-114.7420408
151,Texas,31.9685988,-99.9018131
152,"Boothbay Harbor, Maine",43.8523045,-69.62810139999999
153,"Kansas, USA",39.011902,-98.4842465
154,"Traverse City, MI",44.7630567,-85.62063169999999
155,"Seattle, WA",47.6062095,-122.3320708
156,"Champaign/Urbana, Il",40.1164204,-88.2433829
157,"Windsor Locks, CT",41.9242917,-72.6454469
158,"Perry,NY",42.7156175,-78.0055618
159,Canton Ohio,40.79894729999999,-81.378447
160,"Fort Worth, Texas",32.7554883,-97.3307658
161,Traverse City Michigan,44.7630567,-85.62063169999999
162,"Dallas, TX",32.7766642,-96.79698789999999
163,"Woodmore, MD",38.9212228,-76.80302590000001
164,Covering the Globe,,
165,Eastern Washington,47.4910283,-117.5862361
166,Cavern Country,29.6924095,-98.3427276
167,"Sullivan's Island, SC",32.7632323,-79.8367511
168,"Chicago, IL",41.8781136,-87.6297982
169,"Springfield MO, dreams it could MI again.",37.2089572,-93.29229889999999
170,Xavier University,29.9641088,-90.107647
171,"Swing States, USA",,
172,Exchange Road Haveli Lakha,30.4457557,73.70064140000001
173,"Hazratganj, Lucknow, India",26.8541536,80.94478269999999
174,"San Diego, CA",32.715738,-117.1610838
175,minnesota,46.729553,-94.6858998
176,"Alabama, Biotch! ",32.3182314,-86.902298
177,Montreal • New York • London,45.5060854,-73.5536023
178,"Raleigh, NC",35.7795897,-78.6381787
179,"Orange County, CA",33.7174708,-117.8311428
180,"Denver, CO",39.7392358,-104.990251
181,"Houston, TX",29.7604267,-95.3698028
182,"Wisconsin, USA",43.7844397,-88.7878678
183,"Los Angeles, CA",34.0522342,-118.2436849
184,United States🇺🇸,,
185,Liberty Avenue,40.6838023,-73.83351789999999
186,ARIZONA,34.0489281,-111.0937311
187,"Pondicherry, India",11.9415524,79.8082865
188,"British Columbia, Canada",53.7266683,-127.6476205
189,"Scotland, United Kingdom",56.49067119999999,-4.2026458
190,"Sydney, Australia",-33.8688197,151.2092955
191,Planet Earth,38.253749,-78.458708
192,"St Kew Highway, Cornwall",50.54683499999999,-4.781343
193,"San Jose, CA",37.3382082,-121.8863286
194,"18 Lalbazar St. Kolkata-1,WB",22.5726036,88.35238269999999
195,"Faridabad, India",28.4089123,77.3177894
196,Fredericton,45.9635895,-66.6431151
197,"Bellflower, CA",33.8816818,-118.1170117
198,"Helsinki, Finland",60.16985569999999,24.9383791
199,"Deerfield Beach, FL",26.3184123,-80.09976569999999
200,"South Haven, MI",42.4030865,-86.2736407
201,Manila ,14.5995124,120.9842195
202,"White Plains, NY",41.03398620000001,-73.7629097
203,"Al Ain, UAE ",24.1301619,55.8023118
204,"Bridgeport, WV",39.2864787,-80.25619809999999
205,USA/TN,35.5174913,-86.5804473
206,"Miami, Florida",25.7616798,-80.1917902
207,"Phenix City, AL",32.4709761,-85.0007653
208,"Lacey, Washington",47.0358969,-122.8232553
209,"Seattle, WA, USA",47.6062095,-122.3320708
210,Blue in red state turning blue,37.09024,-95.712891
211,"Owerri, Nigeria",5.489059,7.0175879
212,244 E. 93rd St. - 212-860-1950,40.7824416,-73.9490695
213,"Orlando, FL",28.5383355,-81.3792365
214,"Sudbury Ontario, Canada",46.4917317,-80.99302899999999
215,Duke University,36.0014258,-78.9382286
216,"Bronx, NY",40.8447819,-73.8648268
217,"Berlin, Germany",52.52000659999999,13.404954
218,Gotham City,41.8838802,-87.6317328
219,United Kingdom,55.378051,-3.435973
220,kahin ka nahi,,
221,Haagse Bloemenbuurt,52.0759228,4.260013799999999
222,"MoCo, Maryland",39.1547426,-77.2405153
223,"New York, New York",40.7127753,-74.0059728
224,South Florida,27.6648274,-81.5157535
225,Philly suburbs,39.9541282,-75.1668627
226,"Rajkot, Gujarat",22.3038945,70.80215989999999
227,London UK,51.5073509,-0.1277583
228,"East Olympia, WA",46.9675972,-122.8356906
229,New York ,40.7127753,-74.0059728
230,Pacific Northwest,41.8796763,-87.6356055
231,"Tucson, Arizona",32.2226066,-110.9747108
232,"Argyll, Scotland, UK",56.4006214,-5.480748
233,"Tucson, AZ",32.2226066,-110.9747108
234,Planeta Tierra,,
235,#StGeorge~#StatenIsland~#NYC,40.6427017,-74.0799469
236,Oklahoma,35.4675602,-97.5164276
237,not too far from Normal ,37.684036,-97.316727
238,London and Dubai,51.4988754,-0.1349611
239,"Washington, D.C.",38.9071923,-77.0368707
240,NY,40.7127753,-74.0059728
241,"Des Moines, IA",41.5868353,-93.6249593
242,"Southampton, England",50.90970040000001,-1.4043509
243,"Bend, Oregon",44.0581728,-121.3153096
244,This side of the Wardrobe,,
245,"North East, England",,
246,New Mexico,34.5199402,-105.8700901
247,Bermuda,32.3078,-64.7505
248,"Rajkot, India",22.3038945,70.80215989999999
249,"Cerritos, CA",33.8583483,-118.0647871
250,"Columbia, SC",34.0007104,-81.0348144
251,"Gillette, WY",44.2910915,-105.5022205
252,"Maryland, USA",39.0457549,-76.64127119999999
253,"Islamabad, Pakistan",33.6844202,73.04788479999999
254,SLC UT,40.7607793,-111.8910474
255,Japan,36.204824,138.252924
256,Nairobi,-1.2920659,36.8219462
257,"Detroit, MI",42.331427,-83.0457538
258,"Gurgaon, Haryana",28.4594965,77.0266383
259,"Ice Bunker, Varykino",,
260,اسی دُنیا کے کسی کونے میں,,
261,الارض الكروية,,
262,London,51.5073509,-0.1277583
263,"Odo-Ijoka , Akure.",7.264897899999999,5.1934634
264,"West Bengal, India",22.9867569,87.8549755
265,"Berkeley, CA",37.8715226,-122.273042
266,anywhere Belle face,,
267,Colchester,51.895927,0.8918740000000001
268,"Queens, NY",40.7282239,-73.7948516
269,"Chandigarh, India",30.7333148,76.7794179
270,"Schenectady, NY",42.8142432,-73.9395687
271,"Michigan, USA",44.3148443,-85.60236429999999
272,everywhere,,
273,"Las Vegas, NV",36.1699412,-115.1398296
274,"Nagpur, India",21.1458004,79.0881546
275,"Nashville, TN",36.1626638,-86.7816016
276,"Fredericksburg, VA",38.3031837,-77.4605399
277,"Nebraska, USA",41.4925374,-99.9018131
278,Earth,37.2321077,-95.7243335
279,"North West, England",,
280,"Genoa, Liguria",44.4056499,8.946256
281,"Yorkshire and The Humber, Engl",53.9062233,-1.0333573
282,Cork,32.80719,-96.7963929
283,Pennsylvania,41.2033216,-77.1945247
284,"Honolulu, Hawaii",21.3069444,-157.8583333
285,Northern NJ  USA,40.9262762,-74.07701
286,"Papillion, NE",41.1544432,-96.0422378
287,"San Francisco, CA",37.7749295,-122.4194155
288,"Sutton, London",51.3614279,-0.193961
289,"Los Ángeles, Chile",-37.4629159,-72.3612251
290,"London, Glasgow, Los Angeles ",51.5073509,-0.1277583
291,Ontario,51.253775,-85.323214
292,"Missouri, USA",37.9642529,-91.8318334
293,"Wexford & Dublin, Ireland",53.33698949999999,-6.2656309
294,"Atlanta, GA",33.7489954,-84.3879824
295,"Sacramento, CA",38.5815719,-121.4943996
296,Miles away 🇺🇸,,
297,"Pennsylvania, USA",41.2033216,-77.1945247
298,Makwanpur- Heatauda,27.4367653,85.0025539
299,"columbia, south carolina",34.0007104,-81.0348144
300,Colorado ,39.5500507,-105.7820674
301,Wurundjeri land,,
302,"Buffalo, NY",42.88644679999999,-78.8783689
303,#NY27 ,43.05502120000001,-78.4751945
304,"Tampa Bay, FL",27.763383,-82.5436722
305,Thailand,15.870032,100.992541
306,Asean,34.047863,100.6196553
307,"Pattaya, Thailand",12.9235557,100.8824551
308,Glasgow,55.864237,-4.251806
309,"Brooklyn, NY",40.6781784,-73.9441579
310,"Sherwood Park, Alberta",53.5411916,-113.2957355
311,Twittersphere,,
312,Heartland of America,44.8578989,-93.59303919999999
313,"Alexandria, VA",38.8048355,-77.0469214
314,"Oklahoma, USA",35.0077519,-97.092877
315,"Chicago, IL, USA",41.8781136,-87.6297982
316,"Massachusetts, USA",42.4072107,-71.3824374
317,Madison WI,43.0730517,-89.4012302
318,"Austin, TX",30.267153,-97.7430608
319,"Mahikeng, North West Province",-25.855978,25.64031
320,"Honolulu, HI",21.3069444,-157.8583333
321,Germany,51.165691,10.451526
322,"Portland, OR",45.5051064,-122.6750261
323,"Nunya, biz",41.7507461,-83.6264044
324,India,20.593684,78.96288
325,Matlosana,-26.8617937,26.5137964
326,"Brighton, England",50.82253000000001,-0.137163
327,"Ipswich, UK",52.056736,1.14822
328,Texas and Ireland,52.6512214,-7.252642199999999
329,"Travelling, Australia",29.5166169,-98.4968724
330,Halifax,44.6475811,-63.5727683
331,University of Stirling,56.1454119,-3.9205713
332,"Randburg, South Africa",-26.1438399,27.9951862
333,kasi,42.025296,-93.61623499999999
334,"New Jersey, USA",40.0583238,-74.4056612
335,"1622 Sackville Dr, MSackville",44.7943582,-63.72298129999999
336,"South Africa ,Mpumalanga",-25.565336,30.5279096
337,Newyork city,40.7127753,-74.0059728
338,"Austin, Texas",30.267153,-97.7430608
339,"Lena, IL",42.3794586,-89.8223426
340,Wherever I lay my hat....,,
341,Wisconsin,43.7844397,-88.7878678
342,"Virginia Beach, VA",36.8529263,-75.97798499999999
343,"Ottawa, Ontario, Canada",45.4215296,-75.69719309999999
344,"Newtown Square, PA",39.9868904,-75.4007058
345,Creative Space 🚀 ,,
346, New York ,40.7127753,-74.0059728
347,"Cincinnati, OH",39.1031182,-84.5120196
348,GTA Ontario,44.0383744,-79.1999949
349,"49.497753,7.593849",49.4978135,7.593971600000001
350,www.mp-magic.com,22.9734229,78.6568942
351,Lancing & Basse Normandie,50.828179,-0.328092
352,Florida,27.6648274,-81.5157535
353,UK,55.378051,-3.435973
354,Somewhere in the Mitten,,
355,The Island of Manhattan,40.68945009999999,-74.016792
356,Wordwide,40.0421401,-76.3888087
357,The Resistance,33.8140467,-117.9231874
358,"College Station, TX",30.627977,-96.3344068
359,Hamilton Canada,43.2557206,-79.8711024
360,Sweden / Nigeria / Malawi / UK,,
361,"Ontario, Canada",51.253775,-85.323214
362,"Coney Island, NY",40.5755438,-73.9707016
363,California,36.778261,-119.4179324
364,"Custer, SD",43.7666507,-103.5988057
365,"Phoenix, AZ 🌵🌵🌵",33.6024875,-112.0334781
366,"Green Valley, AZ",31.8542511,-110.9937019
367,"Zurich, Switzerland",47.3768866,8.541694
368,Above ground wearing my mask!,,
369,Midwest,36.1320074,-96.0108839
370,KS,39.011902,-98.4842465
371,"Moreno Valley, CA",33.9424658,-117.2296717
372,House of Burlesque,41.8786946,-71.3860349
373,Kirriemuir,56.675117,-3.003501
374,EMEA,,
375,iran,32.427908,53.688046
376,"Rio de Janeiro, Rio de Janeiro",-22.9068467,-43.1728965
377,"Jaipur, India",26.9124336,75.7872709
378,Rothbury Northumberland,55.310464,-1.909547
379,Tamworth uk,52.633584,-1.691032
380,South Carolina,33.836081,-81.1637245
381,New Kaon,,
382,northern California,38.8375215,-120.8958242
383,at the edge of a universe,,
384,"Alsbach-Hähnlein, Germany",49.7365976,8.585234
385,sean | they/them | white,38.8976763,-77.0365298
386,Left Coast,41.88482339999999,-87.6351433
387,"Palm Beach Gardens, FL",26.8396096,-80.1019144
388,Green Dolphin Street Prison,27.2861584,-80.22305829999999
389,parts unknown,36.4012251,-93.73784429999999
390,Retweets=FYI,,
391,"Providence, Rhode Island",41.8239891,-71.4128343
392,North East Ohio,41.26178729999999,-81.1637245
393,"Bend, OR",44.0581728,-121.3153096
394,"B.C, Canada",53.7266683,-127.6476205
395,"22, Ontario Canada ",43.00432869999999,-81.8143427
396,The Fort ,40.7577165,-96.6456541
397,"a stable, somewhere",,
398,missing my gf ,,
399,Dallas ,32.7766642,-96.79698789999999
400,Tipperary/Galway/Dublin,52.47472639999999,-8.1544426
401,"Tulsa, OK, cis, he/him",36.1539816,-95.99277500000001
402,A Cat Loving Man from the U.S.A. ★ #CatsAreBeautifulSouls,,
403,Aqui,,
404,5th Ave.,47.6108256,-122.3357286
405,"Sanford, FL",28.8028612,-81.269453
406,A nightmare/USA. Same thing,,
407,"Philadelphia, PA",39.9525839,-75.1652215
408,"ÜT: 39.286517,-76.736633",30.2849185,-97.7340567
409,1•20•18,,
410,"Creston , California ",35.5188572,-120.5236187
411,Essex,51.57424469999999,0.4856781
412,wherever the birds are,,
413,"Battle Ground, WA",45.7807959,-122.5477298
414,"Puerto Rico, USA",18.220833,-66.590149
415,Honduras,15.199999,-86.241905
416,"Arlington Heights, IL",42.0883603,-87.98062650000001
417,Salt Lake City ,40.7607793,-111.8910474
418,Liverpool,32.6563146,-115.4765659
419,Cleveland OH,41.49932,-81.6943605
420,"Birmingham, AL",33.5185892,-86.8103567
421,Chapel Hill,35.9131996,-79.0558445
422,"ÜT: 19.721221,-155.089138",30.2849185,-97.7340567
423,idk,36.3704707,-94.10490829999999
424,"Stoke-on-Trent, England",53.002668,-2.179404
425,"Fairport, NY",43.0986742,-77.44193779999999
426,i: li-wri ⛧ he/she 20,,
427,Michigan,44.3148443,-85.60236429999999
428,"Seoul, Republic of Korea",37.566535,126.9779692
429,"Phoenix, Arizona",33.4483771,-112.0740373
430,No room for racism!,,
431,"Las Vegas, NV, USA, NA, Earth",36.2896518,-115.2098042
432,Brooklyn,40.6781784,-73.9441579
433,Oregon,43.8041334,-120.5542012
434,"Kenmore, New York",42.9658907,-78.870036
435,A la campagne,46.837789,-71.22185209999999
436,Chicago IL,41.8781136,-87.6297982
437,"Huntington Beach, CA",33.6594835,-117.9988026
438,Buffalo,42.88644679999999,-78.8783689
439,Somewhere Beyond the Sea ,,
440,Haunting the GOP's nightmares.,,
441,Mars,39.1313169,-94.52078809999999
442,Portugal,39.39987199999999,-8.224454
443,Washington DC,38.9071923,-77.0368707
444,they/them,,
445,"Doha, Qatar",25.2854473,51.53103979999999
446,"Palm Bay, FL",28.0344621,-80.5886646
447,"Reno, NV",39.5296329,-119.8138027
448,"Chattanooga, TN",35.0456297,-85.3096801
449,"Staten Island, NY",40.5795317,-74.1502007
450,"Albany, NY",42.6525793,-73.7562317
451,CA,36.778261,-119.4179324
452,"Phoenix, AZ",33.4483771,-112.0740373
453,"ÜT: 18.007282,-76.786823",30.2849185,-97.7340567
454,"Golden Isles, GA",31.13550499999999,-81.394712
455,Hyrule fkin' Castle,,
456,"Indiana, USA",40.2671941,-86.1349019
457,Between other cats,,
458,Kokovoko,,
459,"Minneapolis, MN ",44.977753,-93.2650108
460,"Beaverton, OR",45.4888761,-122.8013771
461,"Pittsburgh, PA",40.44062479999999,-79.9958864
462,"Savannah, GA",32.0808989,-81.091203
463,Morocco,31.791702,-7.092619999999999
464,🇩🇪,,
465,"Cleveland, OH",41.49932,-81.6943605
466,"Dix Hills, NY",40.8048207,-73.3362298
467,"bay area, ca",37.8271784,-122.2913078
468,"Minneapolis, USA",44.977753,-93.2650108
469,Guam,13.444304,144.793731
470,"Louisville, KY",38.2526647,-85.7584557
471,Seattle,47.6062095,-122.3320708
472,streaming folklore ✨,,
473,where ever I wanna be,,
474,A Lot Of Places All The Time,,
475,"Santurce, PR/Bklyn NY/Mass",18.4481441,-66.0641969
476,The nearest trashcan ,29.712269,-95.62064699999999
477,"Nevada, USA",38.8026097,-116.419389
478,"South Bend, IN",41.6763545,-86.25198979999999
479,🖤💙,,
480,Along the Ring of Fire ,,
481,California-World,34.0502401,-117.2611637
482,Lockdown BE. ,,
483,Wakanda,44.9030233,-91.92098299999999
484,12 : 11 ♡,,
485,"Bangkok, Thailand",13.7563309,100.5017651
486,Internet,37.0373074,-95.61636639999999
487,New York - Los Angeles - Miami,40.741286,-73.98735769999999
488,"Knoxville, TN",35.9606384,-83.9207392
489,FL,27.6648274,-81.5157535
490,มโนแลนด์,,
491,Shawnee National Forest,37.5021953,-88.9403753
492,"กรุงเทพมหานคร, ประเทศไทย",13.7563309,100.5017651
493,"Shakopee, MN",44.7973962,-93.5272861
494,MI,36.1678242,-94.13944959999999
495,she/they,,
496,Ciudad de Hashi.,,
497,The Tardis,44.2722703,-92.9953202
498,Little Rock,34.7464809,-92.28959479999999
499,Fluffalo/LDN ✈️/New Yaaaawk,40.7127753,-74.0059728
500,"Indianapolis, IN",39.768403,-86.158068
501,Flavortown,,
502,"USA, Earth",,
503, New York,40.7127753,-74.0059728
504,#StayZen,,
505,"Daly City, CA",37.6879241,-122.4702079
506,Odd/Lucky | 19 | they/he/thy,29.753421,-95.407249
507,"Georgia, USA",32.1656221,-82.9000751
508,"El Paso, Texas",31.7618778,-106.4850217
509,my lane,44.0088358,-123.0365018
510,"Jupiter, FL",26.9342246,-80.0942087
511,Lying on the floor,,
512,New York/ California,33.9928728,-118.1628414
513,Lekwungen Territory,,
514,kittyzen,,
515,Pittsburgh,40.44062479999999,-79.9958864
516,Somewhere,38.87563129999999,-77.006195
517,"Mesa, AZ",33.4151843,-111.8314724
518,"Toronto, Canada ",43.653226,-79.3831843
519,KCMO,39.0997265,-94.5785667
520,"Aurangabad, India",19.8761653,75.3433139
521,Brownsville/Dallas,32.7160374,-96.7492207
522,ดาวมากรัก,,
523,AlwaysYu,,
524,In the middle of the ocean,,
525,"Wisbech, United Kingdom",52.666317,0.158797
526,"Wichita, Kansas",37.68717609999999,-97.33005299999999
527,Ayutthaya Thailand,14.3692325,100.5876634
528,JPmobage • danmei • animanga,,
529,Argentina,-38.416097,-63.61667199999999
530,"Stanford, CA",37.42410599999999,-122.1660756
531,Nicosia,35.1855659,33.38227639999999
532,"Mount Hope, NY",41.4513121,-74.5346103
533,"Chennai, India",13.0826802,80.2707184
534,"Syracuse, UT",41.0893878,-112.0646657
535,I draw & try to sub J&A too!,,
536,GoldenCloset,,
537,"Salem, OR",44.9428975,-123.0350963
538,Thailand (chiangmai),18.7883439,98.98530079999999
539,"Toronto, Canada",43.653226,-79.3831843
540,Portland/Rockville/Vegas,45.5051064,-122.6750261
541,"Baltimore, MD",39.2903848,-76.6121893
542,갓세븐,,
543,#blacklivesmatter,,
544,Globe  Az,33.3942223,-110.7864984
545,"South-West Finland, Finland",60.36279139999999,22.4439369
546,AZ,34.0489281,-111.0937311
547,from Hell,40.7609253,-73.9889693
548,Texas - 38 EC Votes,31.9685988,-99.9018131
549,"Kingman, AZ",35.189443,-114.0530065
550,she/they • 19 • TKG ♡,,
551,"Bengaluru South, India",12.9715987,77.5945627
552,"ÜT: 14.0693127,100.6133882",30.2849185,-97.7340567
553,"London, UK",51.5073509,-0.1277583
554,"Maplewood, NJ",40.7299793,-74.271992
555,brazil,-14.235004,-51.92528
556,"Lower Saxony, Germany",52.6367036,9.8450766
557,This world,43.5807824,-79.6154316
558,"the internet, bitch",,
559,Flowers lives by depression 🌷,,
560,San Diego,32.715738,-117.1610838
561,"Charleston, SC",32.7764749,-79.93105120000001
562,"New York City | Madrd, Spain",40.76116,-73.968093
563,"वाराणसी, भारत",25.3176452,82.9739144
564,MINORS FUCK OFF,,
565,Saint Colomban,45.7399955,-74.13785469999999
566,COMMISSIONS OPEN 5/5,,
567,"Goa, India",15.2993265,74.12399599999999
568,Somewhere idk,,
569,jimin’s heart✨🐥,,
570, MI USA,44.3148443,-85.60236429999999
571,Bangkok,13.7563309,100.5017651
572,12.12.1998 ♥,,
573,Disneyland,33.8120918,-117.9189742
574,At Home,36.0908081,-95.8545326
575,Brighton,41.1530459,-111.9550744
576,Right here!,,
577,"Arkansas, USA",35.20105,-91.8318334
578,"In a van, by the river.",37.6833686,-96.1116603
579,Everywhere,,
580,Jötunheimr,,
581,"Barcelona, Nomansland",41.3850639,2.1734035
582,Ghana,7.946527,-1.023194
583,"Nottinghamshire, UK",53.100319,-0.9936305999999998
584,Northwest Arkansas,36.0148605,-94.2333355
585,Lenape land,,
586,"Sammamish, WA",47.61626829999999,-122.0355736
587,"Utah, USA",39.3209801,-111.0937311
588,Great state of Oregon!,43.8041334,-120.5542012
589,NYC ,40.7127753,-74.0059728
590,Where needed 🌎👩‍⚕️,,
591, ,,
592,"Greater Sacramento, California",39.0426809,-120.7120023
593,i’m right here,,
594,East Tennessee,35.5174913,-86.5804473
595,"Love my country, South Africa",,
596,On the shores of the Pacific,34.9771934,-89.79574919999999
597,Eastern United States,37.09024,-95.712891
598,Present,,
599,"dnd, magnuspod, ac, misc",,
600,Control Alt Delete,42.0873316,-72.5504828
601, USA,37.09024,-95.712891
602,Guatemala,15.783471,-90.23075899999999
603,"Park Slope, Brooklyn, NY",40.6710672,-73.98142279999999
604,Everywhere ,,
605,Gallaecia,,
606,"Tampa, FL",27.950575,-82.4571776
607,"Vigo, Pontevedra",42.24059889999999,-8.7207268
608,"IL, CA, GA, MI, AZ 🌵",40.6331249,-89.3985283
609,"Oregon, United States",43.8041334,-120.5542012
610,Weybridge,51.3716269,-0.457904
611,"Bayside, NY 11360",40.7779482,-73.7801447
612,Poland,51.919438,19.145136
613,"Gainesville, Florida, USA",29.6516344,-82.32482619999999
614, NJ Shore,39.9652553,-74.3118212
615,At my computer,44.5233176,-80.00900349999999
616,"Charlotte, North Carolina",35.2270869,-80.8431267
617,"Syosset, NY",40.8262101,-73.502068
618,"Brooklyn, ny",40.6781784,-73.9441579
619,"Washington, DC & Jackson Hole",38.8995135,-77.0365478
620,"Sicily, Italy",37.5999938,14.0153557
621,"Amherst, MA, Usono",42.3732216,-72.5198537
622,Cascadia,38.0396957,-78.44472499999999
623,Scientistmel.com ,,
624,The Field of Hopes and Dreams,,
625,Bending stuff towards justice,,
626,δῶς μοι πᾶ στῶ καὶ τὰν γᾶν κινάσω,,
627,"Santa Monica, CA",34.0194543,-118.4911912
628,Adirondacks,44.1247154,-73.8693043
629,"Gravesend, South East",51.44188399999999,0.370759
630,Western United States,37.09024,-95.712891
631,NC,35.7595731,-79.01929969999999
632,Arizona ,34.0489281,-111.0937311
633,london uk,51.5073509,-0.1277583
634,Everywhere and Nowhere,,
635,"Georgia, US",32.1656221,-82.9000751
636,"Los Angeles,CA",34.0522342,-118.2436849
637,Suburbs- Booker be my neighbor,,
638,"Manchester, UK",53.4807593,-2.2426305
639,Petaluma CA,38.232417,-122.6366524
640,another Minnesota Girl,46.729553,-94.6858998
641,"Sevierville, TN",35.8681455,-83.56183500000002
642,"Rancho Mirage, CA",33.739744,-116.41279
643,Southern California,34.9592083,-116.419389
644,"Wales, United Kingdom",52.1306607,-3.7837117
645,Staying in place. ,37.03360360000001,-95.6033248
646,"Washington, USA",47.7510741,-120.7401385
647,"Chesapeake Bay, USA",37.5213728,-76.1050092
648,#uniteblue,,
649,Canada and US,37.09024,-95.712891
650,San Francisco Bay Area,37.8271784,-122.2913078
651,NorCal,38.8375215,-120.8958242
652,"Plano, TX",33.0198431,-96.6988856
653,Bombay,19.0759837,72.8776559
654,"Toronto, ontatio",43.653226,-79.3831843
655,global,39.101825,-94.7605437
656,moshi moshi.. KAABI DEESSSSSS,,
657,"Olathe, KS",38.8813958,-94.81912849999999
658,"Olympia, WA",47.0378741,-122.9006951
659,Puerto Rico,18.220833,-66.590149
660,"Vancouver, WA.",45.6257379,-122.6760886
661,Mittweida,50.9853149,12.9740557
662,"Charlotte, NC, USA",35.2270869,-80.8431267
663,New Jersey,40.0583238,-74.4056612
664,Philadelphia area,39.9526322,-75.1652419
665,gayville,42.8880517,-97.1722732
666,NW Ohio,41.69171650000001,-84.7332884
667,"Flyover Country, IA",37.09024,-95.712891
668,"Churchville, VA",38.22623979999999,-79.1622551
669,California 96003,40.8002021,-122.1792927
670,"Whitehorse, Yukon",60.7211871,-135.0568448
671,"ICT Metro, Kansas",37.6508529,-97.42869879999999
672,"Kigali, Rwanda",-1.9440727,30.0618851
673,"new york, ny",40.7127753,-74.0059728
674,City of brotherly love,39.9525839,-75.1652215
675,Inactive,,
676,"Paradise Valley, AZ",33.5311541,-111.9426452
677,"Andover, MA",42.6583356,-71.1367953
678,"Up & Down the Dial, USA",,
679,Pajama Party,41.589975,-93.6134204
680,"Naples, Campania",40.8517983,14.26812
681,"Long Ditton, Surrey",51.382208,-0.315263
682,People’s Republic of Brooklyn,40.6832859,-73.9925859
683,"Tallahassee, FL",30.4382559,-84.28073289999999
684,55345,44.9188292,-93.4902391
685,Global,39.101825,-94.7605437
686,In between Disney Cruises,,
687,United States of Corporations ,37.09024,-95.712891
688,"Ottawa Hills, Ohio",41.6642169,-83.6432694
689,Land of Enchantment,34.5199402,-105.8700901
690,SRQ,27.3951191,-82.55381969999999
691,"San Antonio, Texas ",29.4241219,-98.49362819999999
692,"Irvine, CA",33.6845673,-117.8265049
693,"Narnaul, India",28.0687645,76.10678899999999
694,"Wellington, FL",26.6617635,-80.2683571
695,South Florida ,27.6648274,-81.5157535
696,"Western, Ghana",5.3901978,-2.1450245
697,Prague,50.0755381,14.4378005
698, TR☭MPLICAN Bay State Prison,41.8548567,-124.1513812
699,"New York, NY ",40.7127753,-74.0059728
700,Indiana,40.2671941,-86.1349019
701,"Putnam/westchester, NY",41.0270219,-73.7584797
702,"Accra, Ghana",5.6037168,-0.1869644
703,Northern California,38.8375215,-120.8958242
704,San Francisco,37.7749295,-122.4194155
705,"Barcelona, Spain",41.3850639,2.1734035
706,"Weston, Florida",26.1003654,-80.3997748
707,"Regina, Saskatchewan",50.4452112,-104.6188943
708,"Chapel Hill, NC",35.9131996,-79.0558445
709,"Purcellville, VA",39.1367717,-77.7147153
710,Self-Isolating at home with OV,,
711,"Space Coast, Florida",28.353895,-80.72611529999999
712,SA. TX,29.4241219,-98.49362819999999
713,"Hyderabad, India",17.385044,78.486671
714,"Warangal-Hamamkonda, India",18.0072341,79.55839209999999
715,Tampa Bay Area - Florida,27.763383,-82.5436722
716,MidWest USA,44.97781090000001,-93.26499439999999
717,"Seattle, Washington",47.6062095,-122.3320708
718,Land of Hope & Dreams (Texas),31.9685988,-99.9018131
719,Kentucky,37.8393332,-84.2700179
720,Pharaoh Land ,,
721,Jersey Shore,39.9652553,-74.3118212
722,UK 🇬🇧,,
723,In the woods in Central Oregon,43.9915056,-121.3583642
724,"South Lantau Island, Hong Kong",22.2664984,113.941751
725,BFE,29.9409222,-95.5843167
726,"Moorpark, California",34.285558,-118.8820414
727,"Conway, AR",35.0886963,-92.4421011
728,"La Crescenta-Montrose, CA",34.228754,-118.2351192
729, Alabama ❤ of Dixie,33.0992639,-86.7499083
730,"Everywhere, USA",,
731,E TEXAS.,31.9685988,-99.9018131
732,Panama City FL,30.1588129,-85.6602058
733,#CA48,33.6384531,-117.9014654
734,location? WHERE U LEAST EXPECT,,
735, wherever the MUSIC is ,,
736,"So Cal, USA",34.9592083,-116.419389
737,"North Las Vegas, NV",36.1988592,-115.1175013
738,"Now, Here",,
739,19| VEGAN| BLACK LIVES MATTER,34.3928159,-118.4657377
740,"Grovetown, GA",33.4504157,-82.1981764
741,"Oceanside, Ca",33.1958696,-117.3794834
742,"Lafayette, Indiana",40.4167022,-86.87528689999999
743, Instagram: @MisterHoonLee,,
744,Communist NYS,40.7448484,-73.9967498
745,"Park City, UT from Boston, MA",,
746,Venus,30.2851533,-81.5138602
747,at where ya sister went,,
748,worldwide,40.0421401,-76.3888087
749,Ohio,40.4172871,-82.90712300000001
750,"Sedona, Az.",34.8697395,-111.7609896
751,TVDSB,42.9966989,-81.206923
752,"London, Ontario",42.9849233,-81.2452768
753,Resistance,,
754,"Maryville, Tennessee",35.7564719,-83.9704593
755,Praying for the second coming ,,
756,Alabama,32.3182314,-86.902298
757,Earth...for now...,,
758,"McMinnville, OR",45.21011619999999,-123.1987163
759,Opinions expressed are my own.,,
760,Amphibia 🐸,,
761,"OKC, OK",35.4675602,-97.5164276
762,"New Smyrna Beach, FL",29.0258191,-80.9269984
763,"Port Arthur, Texas ",29.8849504,-93.93994699999999
764,"Baton Rouge, Louisiana",30.4514677,-91.18714659999999
765,"Charlotte, NC",35.2270869,-80.8431267
766,"Tulsa, OK",36.1539816,-95.99277500000001
767,DM04,,
768,"Scottsdale, AZ",33.4941704,-111.9260519
769,"Whidbey Island, Washington",47.9982761,-122.4395026
770,Sacramento,38.5815719,-121.4943996
771,"Colonie, NY",42.7236699,-73.77132
772,"Kennesaw, Georgia",34.0234337,-84.6154897
773,"Southwest Michigan, USA",44.3148443,-85.60236429999999
774,"Norfolk, VA",36.8507689,-76.28587259999999
775,tallahassee florida,30.4382559,-84.28073289999999
776,"Springfield, MO",37.2089572,-93.29229889999999
777,Zürich and Beijing,47.3933832,8.5116455
778,"Y Barri, Cymru. Barry, Wales",51.3997529,-3.2825859
779,"Le Roy, NY",42.9783944,-77.9841776
780,"Puerto Peñasco, Sonora",31.3268218,-113.5311843
781,"Fort Lauderdale, FL",26.1224386,-80.13731740000001
782,SoCal ... via TX,34.9592083,-116.419389
783,"South East, England",52.3555177,-1.1743197
784,"Fisher Island, Florida",25.7609329,-80.14004589999999
785,Nottingham,52.95478319999999,-1.1581086
786,"Walton, KY",38.87561940000001,-84.61022129999999
787,"Doncaster, England",53.52282,-1.128462
788,"None of your business, USA",,
789,"North Little Rock, AR",34.769536,-92.2670941
790,Michigan ,44.3148443,-85.60236429999999
791,BellaWorld,,
792,St. Louis,38.6270025,-90.19940419999999
793,3rd rock from the sun,33.3945681,-104.5229281
794,Indiana  #hoosier,40.2671941,-86.1349019
795,In my house,33.202584,-87.55306639999999
796,"Bedford County, TN",35.4702472,-86.4592091
797,khi/isb,24.9007815,67.16810269999999
798,"Bruxelles, Belgique",50.8503396,4.3517103
799,OK | CO,37.1599489,-95.77285409999999
800,Endless Mountains of Pa.,41.6000761,-76.0496476
801,FL Cong Dist 8 Traitor Posey,28.0784244,-80.7214417
802,"Mobile, AL",30.6953657,-88.0398912
803,"Oxnard, CA",34.1975048,-119.1770516
804,FL-23,26.0625528,-80.2098219
805,Gonesville,,
806,"WEST JORDAN, UT",40.6096698,-111.9391031
807,Dallas County,32.8024682,-96.83509989999999
808,West Virginia,38.5976262,-80.4549026
809,Gibraltar,36.140751,-5.353585
810,"Peace, Love, Prayer & Praise",,
811,"Texas, etc.",30.2898999,-97.7354211
812,Kingdom of His Son.,,
813,"Fernandina Beach, FL",30.6696818,-81.46259189999999
814,"Sanatoga, PA",40.2450981,-75.5951827
815,"Port Sydney, Ontario",45.2175539,-79.2858135
816,"San Antonio, TX",29.4241219,-98.49362819999999
817,"Pacifica, CA",37.6138253,-122.4869194
818,It’s a Secret,36.11282509999999,-94.1458382
819,Johannesburg,-26.2041028,28.0473051
820,"Salt Lake City, Utah",40.7607793,-111.8910474
821,"Rhode Island, USA",41.5800945,-71.4774291
822,"Clemson, SC",34.6834382,-82.8373654
823,"Waco, TX",31.549333,-97.1466695
824,In the clouds,43.7279646,-71.3216113
825,Deep behind enemy lines #CO,,
826,"La Florida, Chile",-33.5226882,-70.5987142
827,My Azz At HOME,,
828,DC,38.9071923,-77.0368707
829,"San Martín, Argentina",-34.5757521,-58.53709649999999
830,"Lübeck, Deutschland",53.8654673,10.6865593
831,"Andhra Pradesh, India",15.9128998,79.7399875
832,マグカップの底,,
833,"Cleveland, TN",35.1595182,-84.8766115
834,"North Bay, Ontario",46.3091152,-79.4608204
835,WH safety officer ,,
836,➡️New York➡️St.Louis➡️Memphis,40.7127753,-74.0059728
837,The South,37.09024,-95.712891
838,"Lewisburg, PA",40.9645293,-76.8844101
839,Los Angeles ,34.0522342,-118.2436849
840,"Santa Cruz, CA",36.9741171,-122.0307963
841,NM,34.5199402,-105.8700901
842,956,26.2084651,-98.2687744
843,Virtual Nomad,40.7464954,-73.9882611
844,Wichita KS - Eureka Springs AR,37.68717609999999,-97.33005299999999
845,"Aguascalientes, México",21.8852562,-102.2915677
846,   Palo Cedro California ,40.5637631,-122.2388916
847,City of Angels,34.0339233,-118.1861217
848,"Greenwood, SC",34.1954001,-82.1617883
849,Cambridge via Dublin,52.205337,0.121817
850,"St. Peace, Florida",27.7770188,-82.6762876
851,"SF Peninsula, CA",37.4614629,-122.3107517
852,"Tennessee, USA",35.5174913,-86.5804473
853,"Barrie, Ontario",44.38935559999999,-79.6903316
854,"Gainesville, FL",29.6516344,-82.32482619999999
855,10th level of Hell,,
856,"Ft Lauderdale, FL",26.1224386,-80.13731740000001
857,"Mount Pleasant, SC",32.8323225,-79.82842579999999
858,"Mountain View, CA",37.3860517,-122.0838511
859,"Lake Worth Beach, FL",26.6167555,-80.0684479
860,ohio,40.4172871,-82.90712300000001
861,Anarchist Jurisdiction,,
862,ATL & NYC,40.75753700000001,-73.97417899999999
863,Chicago IL. Trump2020,41.8781136,-87.6297982
864,"Burlington, WI",42.6780726,-88.27620259999999
865,Bali / Boston / Miami,-8.3405389,115.0919509
866,"Greater Accra, Ghana",5.8142836,0.0746767
867,"Galway, Ireland",53.270668,-9.0567905
868,"NY, NJ, LA & London dreams",40.7127753,-74.0059728
869,"Houston, Texas",29.7604267,-95.3698028
870,The Salish Sea,48.32952580000001,-123.1406752
871,"Upper Nyack, NY",41.1070404,-73.92013709999999
872,I would rather be ___________,,
873,Australia,-25.274398,133.775136
874,Wish A Nigga Woods,,
875,"Coral Gables, FL",25.7491968,-80.2635411
876,"Carson, CA",33.8316745,-118.281693
877,Empire State - Liberty Island🗽,40.7484405,-73.98566439999999
878,#WakandaForever,,
879,Oregon USA,43.8041334,-120.5542012
880,"Wollongong, New South Wales",-34.4278121,150.8930607
881,Chile,-35.675147,-71.542969
882,96 ZEGOT street,44.2273698,-76.4877573
883,MostlyInTheDogHouseIsTheNorm,,
884,"Columbus, OH",39.9611755,-82.99879419999999
885,TX,31.9685988,-99.9018131
886,Heaven,37.0326709,-95.6235557
887,"Athens, GA",33.9519347,-83.357567
888,Madrid Espana 👑🌮🛹,40.4167754,-3.7037902
889,"SAN FRANCISCO, CA",37.7749295,-122.4194155
890,Italy,41.87194,12.56738
891,"Boise, ID",43.6150186,-116.2023137
892,Br00kLyn,,
893,Parler & Gab: @StephPhilip,,
894,Global-USA-East Coast,40.7513772,-73.99248829999999
895,Nevada,38.8026097,-116.419389
896,USA🇺🇸Land of the Free,,
897,United States of America,37.09024,-95.712891
898,"Burlington, VT",44.4758825,-73.21207199999999
899,Lost In Space,,
900,"Chatsworth Lake Manor, CA",34.240837,-118.6370332
901,Georgia,32.1656221,-82.9000751
902,TRUMP territory 🇺🇸 ,,
903,"Hamm, Deutschland",51.6738583,7.8159817
904,"Brookline, MA",42.33176419999999,-71.1211635
905,"Bryan, TX",30.6743643,-96.3699632
906,The Bay Area ,37.8271784,-122.2913078
907,"West Hollywood, CA",34.0900091,-118.3617443
908,Colorado,39.5500507,-105.7820674
909,"Long Beach, CA",33.7700504,-118.1937395
910,Chandigarh,30.7333148,76.7794179
911,"Rockford, IL USA",42.2711311,-89.0939952
912,"Guelph, Ontario, Canada",43.5448048,-80.24816659999999
913,"Tema, Ghana",5.7348119,0.0302354
914,snowpix snowpix snowpix,,
915,My Vice-President is Black ,,
916,Detroit ,42.331427,-83.0457538
917,none of your business,,
918,West Michigan,44.3148443,-85.60236429999999
919,"Pasadena, California USA",34.1477849,-118.1445155
920,Italia,41.87194,12.56738
921,Toronto/Boston,43.6441451,-79.388508
922,She/her,37.0320193,-95.623423
923,"Fort Myers, FL",26.640628,-81.8723084
924,"Jackson Heights, New York",40.7556818,-73.8830701
925,Northern CA,38.8375215,-120.8958242
926,on an island,38.8760566,-92.47587039999999
927,"California, USA 🇺🇸",36.778261,-119.4179324
928,Cali USA,36.778261,-119.4179324
929,"WI,   USA",43.7844397,-88.7878678
930,NY/PA..🇺🇸,40.7127753,-74.0059728
931,"Los Angeles, California",34.0522342,-118.2436849
932,most isolated place on earth,,
933,I've lost track...,,
934,"HillaryVillage, CA",34.161572,-118.8360694
935,"Norwalk, CT",41.11774399999999,-73.4081575
936,"St Louis, MO",38.6270025,-90.19940419999999
937,"Las Vegas, NV and elsewhere",36.1699412,-115.1398296
938,"Inwood, NY ",40.8677145,-73.9212019
939,"Post Falls, ID",47.7179578,-116.9515856
940,Easton PA,40.688432,-75.2207323
941,"Magna, UT",40.7091121,-112.1016088
942,"Anaheim Hills, CA",33.8508021,-117.7490656
943,"Central, PA",41.2033216,-77.1945247
944,"Atlanta, Georgia, USA",33.7489954,-84.3879824
945,"Chinnor, England",51.701181,-0.908629
946,"Earth, USA",34.2331373,-102.4107493
947,Desert,35.01099110000001,-115.4733551
948,LA ,34.0522342,-118.2436849
949,"SC, USA",33.836081,-81.1637245
950,Texas Forever,29.6890905,-95.6229192
951,"Alexandria, Va",38.8048355,-77.0469214
952,"Kumasi, Ghana",6.6666004,-1.6162709
953,LA via the IE,,
954,Prescott Arizona,34.5400242,-112.4685025
955,Boreaal Friesland,53.1641642,5.7817542
956,"Reading, England",51.4542645,-0.9781303
957,Maskless secondary school 💔,,
958,"New Mexico, USA",34.5199402,-105.8700901
959,Lost in the story,,
960,NJ,40.0583238,-74.4056612
961,Bettembourg,49.5192118,6.1002461
962,"Ballarat, Victoria, Australia",-37.5621587,143.8502556
963,Ireland,53.1423672,-7.692053599999999
964,"Hollywood, California",34.0928092,-118.3286614
965,LosAngeles,34.0522342,-118.2436849
966,SC,33.836081,-81.1637245
967,Abdullapurmet,17.3100943,78.68613909999999
968,Cologne,50.937531,6.9602786
969,"Akron, OH",41.0814447,-81.51900529999999
970,"Columbia, South Carolina",34.0007104,-81.0348144
971,The sea on my left,,
972,"Bloomington, IN, USA",39.165325,-86.52638569999999
973,"Sarasota, FL",27.3364347,-82.53065269999999
974,"Cape Cod, MA",41.6687897,-70.29624079999999
975,Toronto ,43.653226,-79.3831843
976,"Adjala-Tosorontio, Ontario",44.1254172,-79.9416549
977,"Oxford, England",51.7520209,-1.2577263
978,Bay Area,37.8271784,-122.2913078
979,Climbing the mountain,38.9649445,-94.71807799999999
980,Somewhere in Space 🌌,,
981,"Salt Lake City, UT",40.7607793,-111.8910474
982,Florida..Gator Country!!!!!🐊,,
983,"Arvada, CO",39.8027644,-105.0874842
984,"Michigan, United States",44.3148443,-85.60236429999999
985,"İstanbul, Türkiye",41.0082376,28.9783589
986,"Ashanti, Ghana",6.7470436,-1.5208624
987,"Fort Worth, TX",32.7554883,-97.3307658
988,"Avon, IN",39.7628227,-86.3997167
989,the dog park,36.7441944,-95.94949869999999
990,in the garden somewhere,,
991,"Downtown, Canada",43.6548046,-79.3883031
992,CT ✈️ North Texas & Austin,30.2849185,-97.7340567
993,sitting naked by the phone,,
994,"Rogers, AR",36.3320196,-94.1185366
995,🤣,,
996,Under a Pink Sky,,
997,North Dakota,47.5514926,-101.0020119
998,"Boulder, Colorado",40.0149856,-105.2705456
999,19,36.3131255,-95.62070100000001
1000,"Round Rock, TX",30.5082551,-97.678896
1001,Montreal,45.5016889,-73.567256
1002,"Ocean Bluff, MA",42.1080418,-70.66331749999999
1003,Universe of Interactive Media ,,
1004,Here,,
1005,clownsville,,
1006,"New Hampshire, USA",43.1938516,-71.5723953
1007,USA (variable by season),,
1008,"Anchorage, AK",61.2180556,-149.9002778
1009,in the country.,36.23494350000001,-96.0584222
1010,in my head,45.0054782,-122.7833297
1011,"Fayetteville, AR",36.082156,-94.17185420000001
1012,waiting for you...,,
1013,"Palm Springs, CA",33.8302961,-116.5452921
1014,"Western NC, USA",35.8257305,-82.0407137
1015,"Farmington, NM",36.72805830000001,-108.2186856
1016,"Lake Carmel, NY",41.4614825,-73.6709626
1017,Biff's Alternate TL Since 1/17,,
1018,transylvania,46.1840561,25.2223974
1019,"Hampton, VA",37.0298687,-76.34522179999999
1020,Concord,37.9779776,-122.0310733
1021,Above The Rim or In The Cut.,,
1022,"Chesapeake, VA",36.7682088,-76.2874927
1023,Utah,39.3209801,-111.0937311
1024,california,36.778261,-119.4179324
1025,Henderson NV,36.0395247,-114.9817213
1026,"Pa, Co,& Evrywhere in Between",,
1027,Young Sinatra,,
1028,In the present moment.,29.89088929999999,-81.3275689
1029,saturn,36.1583952,-95.9946482
1030,Trinidad and Tobago,10.691803,-61.222503
1031,طوباس فلسطين,32.321086,35.369953
1032,"Golden, CO",39.755543,-105.2210997
1033,SoCal,34.9592083,-116.419389
1034," planet earth, Kingdom of God",,
1035,NE Ohio,41.26178729999999,-81.1637245
1036,Outside a cave,,
1037,Deep South,36.0976606,-95.86408349999999
1038,Upstate New York,43.0422845,-76.13981369999999
1039,"Warwick, RI",41.7001009,-71.4161671
1040,"Coral Gables, Fl.",25.7491968,-80.2635411
1041,"Forestville, CA /Southern Pomo",38.4735237,-122.8902721
1042,"Columbus, Ohio",39.9611755,-82.99879419999999
1043,OH/FL,28.6803745,-81.3897303
1044,Digital Nomad,34.0157215,-118.4947703
1045,Inside the Beltway ,,
1046,Alllll the places,,
1047,United States & Canada,38.8929359,-77.0185482
1048,"Cleveland, Ohio",41.49932,-81.6943605
1049,"Laredo, TX",27.5035613,-99.5075519
1050,"Right Here Mofo, DM 4 Promo 💰",,
1051,Eltar,41.9136454,12.4206824
1052,"Lynchburg, VA",37.4137536,-79.14224639999999
1053,Vermont,44.5588028,-72.57784149999999
1054,sick and tired of this shit,,
1055,No,36.7131978,-95.93851869999999
1056,"Winston-Salem, NC",36.09985959999999,-80.244216
1057,"Winchester, CA",33.706966,-117.0844733
1058,"San Anselmo, CA",37.9746458,-122.5616448
1059,Under a Bridge,32.3591875,-95.29856439999999
1060,"Wichita, Ks",37.68717609999999,-97.33005299999999
1061,"Ottawa, Ontario",45.4215296,-75.69719309999999
1062,Fangorn Forest ,35.0675129,-85.2983756
1063,"Edmonds, WA",47.8106521,-122.3773551
1064,❤️,,
1065,Somewhere Some place,,
1066,"Parksville, B.C., Canada",49.3193375,-124.3136411
1067,England,52.3555177,-1.1743197
1068,"Rochester, NY ",43.15657789999999,-77.6088465
1069,"Kirkland, WA",47.6768927,-122.2059833
1070,"Ann Arbor, MI",42.2808256,-83.7430378
1071,Melbourne Australia,-37.8136276,144.9630576
1072,St Lucia,13.909444,-60.978893
1073,canada,56.130366,-106.346771
1074,Parts Unknown,36.4012251,-93.73784429999999
1075,"Maywood, NJ",40.902599,-74.06180739999999
1076,Virginia Beach,36.8529263,-75.97798499999999
1077,The U.S.,37.09024,-95.712891
1078,CANADA,56.130366,-106.346771
1079,Ohio *NO LISTS*,40.4172871,-82.90712300000001
1080,"Auburn, AL",32.6098566,-85.48078249999999
1081,"Huntington, WV",38.4192496,-82.44515400000002
1082,Dublin,53.3498053,-6.2603097
1083,.,,
1084,Toronto/St Thomas,43.668659,-79.3906906
1085,Strangeland ,38.93654,-94.384627
1086,"Centennial, CO",39.5807452,-104.8771726
1087,"Asbury Park, New Jersey",40.2203907,-74.0120817
1088,"Brunswick, GA",31.1499528,-81.49148939999999
1089,"North Providence, RI",41.8535518,-71.46766389999999
1090,"McHenry, IL",42.333355,-88.2667534
1091,FLORIDA the Drippy Penis state,27.6648274,-81.5157535
1092,Rainbow Bridge,37.0734681,-94.7408105
1093,Midwest USA,44.97781090000001,-93.26499439999999
1094,"Edinburg, TX",26.3017374,-98.1633432
1095,Born GA. Raised AZ. Stuck TN,34.0489281,-111.0937311
1096,"North Wales, PA",40.2109404,-75.2782317
1097,"Belleville, Ontario",44.1627589,-77.3832315
1098,"Alaska, USA",33.416977,-111.734779
1099,El Ay,31.747261,-106.3195028
1100,💗 @SerumInstIndia 💉 🇮🇳 ,,
1101,"Moore, OK",35.3395079,-97.48670279999999
1102,Twitch,,
1103,He/They,,
1104,"Folkvangr, Helhiem",,
1105,"Redlands,",34.0555693,-117.1825381
1106,"Wyoming, USA",43.0759678,-107.2902839
1107,Unknown,35.2205194,-80.8575444
1108,"orlando, fl ",28.5383355,-81.3792365
1109,Cassiopeia—she/her ,,
1110,Northwest Florida,30.5394163,-86.475644
1111,Exile,41.5828712,-93.63707769999999
1112,Hell,42.43472,-83.985
1113,"Palm Beach, FL",26.7056206,-80.0364297
1114,𝗮𝗹𝗹𝗶 ⁸ ☻,,
1115,"South Carolina, USA",33.836081,-81.1637245
1116,"Chilliwack, British Columbia",49.1579401,-121.9514666
1117,Southeast Asia,-2.2179704,115.66283
1118,Hong Kong,22.3193039,114.1693611
1119,"Escondido, CA near San Diego",33.1192068,-117.086421
1120,"Atlanta,GA",33.7489954,-84.3879824
1121,"Vancouver, British Columbia",49.2827291,-123.1207375
1122,"Wadsworth, Ohio",41.0256101,-81.72985190000001
1123,Land Of Oz,37.788321,-97.55896899999999
1124,Second star to the right...,39.6885179,-104.9806201
1125,Northern California Redwoods ,41.2131788,-124.0046275
1126,"Memphis, TN",35.1495343,-90.0489801
1127,"Pecan Acres, Texas, USA",32.9701251,-97.47474319999999
1128,"Grand Rapids, MI",42.9633599,-85.6680863
1129,C🌼A🌴L☀️I⛵️F🌊O🏂R🏖N🏄I🐻A,,
1130,Greater Boston,42.3600709,-71.0588305
1131,"Omaha, NE",41.2565369,-95.9345034
1132,"Louisiana, USA",30.9842977,-91.96233269999999
1133,"CHATTANOOGA,TN",35.0456297,-85.3096801
1134,Rancho Cucamonga,34.10639889999999,-117.5931084
1135,"Chandler, AZ",33.3061605,-111.8412502
1136,Ur local trashcan,39.883201,-82.967225
1137,"New York, New York, New York",40.7127753,-74.0059728
1138,Anywhere liberals aren't. ,,
1139,THE MATRIX,42.426466,-82.984498
1140,Florida.,27.6648274,-81.5157535
1141,VA ✊🏾,37.4315734,-78.6568942
1142,"Fayetteville, NC",35.0526641,-78.87835849999999
1143,"Concord, CA",37.9779776,-122.0310733
1144,Your mama's pajamas,,
1145,"New York, N.Y.",40.7127753,-74.0059728
1146,In Downtown Coolsville,,
1147,"Fort Washington, MD",38.7073379,-77.0230313
1148,"Lower East Side/Chinatown, NYC",40.7157509,-73.9970307
1149,Indiana ,40.2671941,-86.1349019
1150,"Kansas City, MO",39.0997265,-94.5785667
1151,"Dickinson, ND",46.8791756,-102.7896242
1152,Almost Heaven Wild WonderfulWV,38.3360256,-81.6123831
1153,"Rawlins, Wyoming",41.7910697,-107.2386627
1154,"Near North Side, Chicago",41.90391,-87.6314629
1155,"Osun, Nigeria",7.562896399999999,4.5199593
1156,"Morrilton, AR",35.1509173,-92.74405379999999
1157,"SeaTac, WA USA",47.4435903,-122.2960726
1158,Front Row,42.3843734,-87.8309819
1159,Sacae,43.0554095,141.3202798
1160,"Burleson, Texas",32.5420821,-97.3208492
1161,"Mississippi, USA ",32.3546679,-89.3985283
1162,"Memphis, TN USA",35.1495343,-90.0489801
1163,Southern Ohio ,39.6964351,-84.1068998
1164,south florida,27.6648274,-81.5157535
1165,"Minneapolis, Minnesota",44.977753,-93.2650108
1166,"Grand Forks, ND",47.9252568,-97.0328547
1167,"Lenexa, Kansas",38.9536174,-94.73357089999999
1168,nyc,40.7127753,-74.0059728
1169,"Richmond, Virginia ",37.5407246,-77.4360481
1170,"Dhaka, Bangladesh",23.810332,90.4125181
1171,"Pittsbburgh,PA",40.44062479999999,-79.9958864
1172,"Dallas, TX  ",32.7766642,-96.79698789999999
1173,"Aubrey, TX",33.3042834,-96.98611799999999
1174,#Athiest #NORMAL #Progressive,,
1175,"Las Vegas, NV USA",36.1699412,-115.1398296
1176,Prior Lake Minnesota,44.7132969,-93.4227274
1177,Space,36.7499658,-95.96260079999999
1178,"Liverpool, uk",53.4083714,-2.9915726
1179,Upstate New York ,43.0422845,-76.13981369999999
1180,The Night,38.9392904,-94.66476209999999
1181,"Wexford, Ireland",52.336916,-6.4633381
1182,CA-23,35.5902849,-118.4863963
1183,Vancouver Island,49.6506376,-125.4493906
1184,All Over,45.5567386,-94.17193449999999
1185,"San Joaquin, CA",36.6066162,-120.1890447
1186,the united states of america,37.09024,-95.712891
1187,Together we Rise 👉👉,33.9243125,-117.9056243
1188,"New York, Brooklyn",40.6781784,-73.9441579
1189,Usually on water ,,
1190,Milky Way,35.314604,-87.04062119999999
1191,PO Box 913497 Sherman TX 75091,33.6600293,-96.59458749999999
1192,"Watsonville,Ca",36.910231,-121.7568946
1193,"Seven Hills, NV",35.9862733,-115.1236952
1194,"Vancouver, Canada 🇨🇦",49.2827291,-123.1207375
1195,Connecticut,41.6032207,-73.087749
1196,"Pflugerville, TX",30.4548451,-97.6222665
1197,u.s,37.09024,-95.712891
1198,smoky mountains,35.6531943,-83.5070203
1199,Basin & Range | Mojave,38.1879289,-115.5272574
1200,The city that NEVER sleeps. (NYC babyyy!!!),40.7830603,-73.9712488
1201,MULTI | she/her | 🇯🇵🇲🇽🇺🇸,,
1202,"Raleigh, North Carolina",35.7795897,-78.6381787
1203,The Nine Realms,45.569472,-122.6078382
1204,"Calgary, Alberta",51.04473309999999,-114.0718831
1205,"Durham, NC",35.9940329,-78.898619
1206,turtleduck pond,,
1207,Under Carolina blue skies ,,
1208,"MN, USA ",46.729553,-94.6858998
1209,"Oakland, Ca / El Paso, Tx",31.8053354,-106.3824345
1210,"tampa,fl",27.950575,-82.4571776
1211,"Iowa, USA",41.8780025,-93.097702
1212,"Oakbrook Terrace, IL",41.8500302,-87.96450770000001
1213,DISARRAY😷,,
1214,Mexico D.F.,19.4326077,-99.133208
1215,Vegas baby! 🖤🎰,36.3083392,-115.2706778
1216,NYC //,40.7127753,-74.0059728
1217,USA & AFRICA,34.0619445,-118.3521764
1218,"Malvern, PA",40.0362184,-75.5138118
1219,"Lake Wylie, SC",35.108476,-81.0428538
1220,Chicagoland,41.7435073,-88.0118473
1221,US,37.09024,-95.712891
1222,"District of Columbia, USA",38.9071923,-77.0368707
1223,"Lakewood, OH",41.4819932,-81.7981908
1224,it tough to say for sure,,
1225,Virginia,37.4315734,-78.6568942
1226,grass valley ca.,39.2190608,-121.0610606
1227,N Y C,40.7127753,-74.0059728
1228,"Homestead, FL",25.4687224,-80.4775569
1229,"San Rafael, California",37.9735346,-122.5310874
1230,"Muskegon, MI",43.2341813,-86.24839209999999
1231,"Bloomington, IN",39.165325,-86.52638569999999
1232,World,36.1539816,-95.99277500000001
1233,USA ,37.09024,-95.712891
1234,"White Oak, MD",39.0398315,-76.99303189999999
1235,The United States of America,37.09024,-95.712891
1236, NY/NJ,40.0583238,-74.4056612
1237,"San Diego, California, USA",32.715738,-117.1610838
1238,she/her  🇻🇪,,
1239,tampa,27.950575,-82.4571776
1240,venmo : marilyngttz,,
1241,"Neenah, Wisconsin",44.1858193,-88.462609
1242,Somewhere looking at memes,,
1243,Panameña de pura cepa,,
1244,"Simi Valley, California",34.2694474,-118.781482
1245,Twenty thousand roads.,,
1246,"Phone/Text/Whatsapp/Signal/Telegram: (240) 844-2514, Email: bwcs2020@protonmail.com",,
1247,LeRoy Ny,42.9783944,-77.9841776
1248,"Morristown, NJ",40.79676670000001,-74.4815438
1249,"Middletown, Maryland",39.4437123,-77.5447102
1250,"Fredericton,NB Canada",45.9635895,-66.6431151
1251,"Santa Clarita, CA",34.3916641,-118.542586
1252,Spain,40.46366700000001,-3.74922
1253,🌎 Mojave ☀️ Desert 🔥,35.01099110000001,-115.4733551
1254,"Las Vegas, Nevada",36.1699412,-115.1398296
1255,chilling with the akatsuki,,
1256,Dixie U.S.A. ,40.65026640000001,-73.902911
1257,Central illinois,40.3084762,-89.70042149999999
1258,"York, PA | Orlando, FL",39.9643583,-76.7271954
1259,"Forest Lake, MN",45.2788561,-92.9852183
1260,Straight Outta Hartford👨🏿‍⚕️,41.7658043,-72.6733723
1261,"Madison, Wi",43.0730517,-89.4012302
1262,whose asking ,,
1263,"Spokane, WA",47.6587802,-117.4260465
1264,The Pirate Ship Revenge,,
1265,"Canoga Park, CA",34.208254,-118.6058609
1266,Terraria,,
1267,JAX/NY ,42.5936454,-76.20829239999999
1268,So Cal,34.9592083,-116.419389
1269,Key Biscayne,25.693713,-80.1628248
1270,"Jacksonville, FL",30.3321838,-81.65565099999999
1271,"Charlottesville, VA",38.0293059,-78.47667810000002
1272,"SLC, NYC, 𝐸𝓋𝑒𝓇𝓎𝓌𝒽𝑒𝓇𝑒",40.7127753,-74.0059728
1273,Beyond The Yellow Brick Road,,
1274,"philadelphia, pa",39.9525839,-75.1652215
1275,"Edmonton, Alberta, Treaty Six",53.5500151,-113.6237394
1276,Club Afterlife Venue @ Jenova,,
1277,"Shaker Heights, OH",41.4739419,-81.5370671
1278,Left coast of Earth,,
1279,"Tuscaloosa, AL",33.2098407,-87.56917349999999
1280,"Boston,MA",42.3600825,-71.0588801
1281,California °o°,32.5564438,-116.9353451
1282,"L.A., CA, USA, EARTH-Prime",34.0522342,-118.2436849
1283,Maryland USA,39.0457549,-76.64127119999999
1284,Tulsa Oklahoma,36.1539816,-95.99277500000001
1285,"Kingston, Ontario",44.2311717,-76.4859544
1286,"Brookfield, WI",43.0605671,-88.1064787
1287,"Regional Victoria, Australia",-37.8130049,144.974835
1288,"Columbus,Ohio",39.9611755,-82.99879419999999
1289,sleeping ,38.9943929,-94.7054852
1290,Milky Way among the stars ,,
1291,"Nederland, TX",29.9743803,-93.9923965
1292,"Detroit, Michigan",42.331427,-83.0457538
1293,On the Nightrain,,
1294,Maryland,39.0457549,-76.64127119999999
1295,"My Town, Kentucky",37.5319742,-84.6517975
1296,Las Vegas / NYC / Earth,36.14738450000001,-115.1566778
1297,"Long Island, NY ",40.789142,-73.13496099999999
1298,"Lexington, KY",38.0405837,-84.5037164
1299,"Ciales, Puerto Rico",18.3353252,-66.4680716
1300,"Loop, Chicago",41.8786351,-87.6250549
1301,Bolivia,-16.290154,-63.58865299999999
1302,Central Illinois,40.3084762,-89.70042149999999
1303,RAMS HOUSE,35.9024727,-79.04626139999999
1304,"SF Bay Area, CA",37.8271784,-122.2913078
1305,Sierra 👽  Nevada ❄ Calif🌲,38.65797750000001,-121.1860835
1306,Not hiding in a bunker,,
1307,"القاهرة, مصر",30.0444196,31.2357116
1308,"Pawnee, In",36.3378321,-96.8039232
1309,"Lima, Peru",-12.0463731,-77.042754
1310,Somewhere over the rainbow,40.7844769,-80.1486419
1311,Texan in WA & Home in Texas,35.1936064,-101.7548944
1312,"Philadelphia, NYC, Reading, PA",40.33517000000001,-75.92712
1313,"Wichita, KS",37.68717609999999,-97.33005299999999
1314,"Minnesota, USA",46.729553,-94.6858998
1315,"Portage Lakes, OH",41.0072779,-81.52706169999999
1316,St. Louis/Atlanta,33.7763048,-84.35016279999999
1317,Anarchist Jurisdiction #3,,
1318,On the road to ruin ,,
1319,Sadly not Ireland,53.1423672,-7.692053599999999
1320,Isla de la Reina Muerte,,
1321,Danger Zone,37.13476259999999,-94.0637637
1322,💜 Love Crescent ⁷ 💜,43.81901810000001,-79.0224058
1323,"Arlington, Tx",32.735687,-97.10806559999999
1324,"Highland Park, CA",34.1154946,-118.1843898
1325,"Chicago, Illinois",41.8781136,-87.6297982
1326,West Toluca Lake ,34.1554714,-118.3734837
1327,At the beach,36.0593926,-95.8141739
1328,Maine,45.253783,-69.4454689
1329,Californee,,
1330,"Surrounded by Red, Utah",39.3209801,-111.0937311
1331,NWA,36.1398062,-94.1809839
1332,"Los Angeles, CA/Bozeman, MT",33.9415889,-118.40853
1333,"dallas, tx, y'all | they/them",32.8838236,-96.7693444
1334,Evergreen State,47.0735049,-122.9752811
1335,Silicon Valley - CA,37.387474,-122.0575434
1336,"Read the room, Fucko! ",,
1337,pluto ,33.0534611,-90.38120040000001
1338,"Aurora, CO",39.7294319,-104.8319195
1339,"spurs nation, tx",27.668144,-97.36866649999999
1340,Nv,38.8026097,-116.419389
1341,Earth    ,37.2321077,-95.7243335
1342,"Chico, CA",39.7284944,-121.8374777
1343,"Kansas City, MO (area)",39.0997265,-94.5785667
1344,"Boyle Heights, Los Angeles",34.0297895,-118.2117257
1345,PNW,41.5837615,-86.8939173
1346,The PNW,47.1922203,-122.2800904
1347,"Paris, France",48.856614,2.3522219
1348,"Wake Forest, NC 🇺🇸",35.9798734,-78.50972279999999
1349,24 • east michigan,42.76305780000001,-84.486204
1350,"Toronto, On",43.653226,-79.3831843
1351,The great Midwest,43.03677820000001,-88.1112521
1352,rps,37.5442566,-77.4931403
1353,Norway,60.47202399999999,8.468945999999999
1354,831 / 619,,
1355, Los Angeles,34.0522342,-118.2436849
1356,"Paris, Ile-de-France",48.8499198,2.6370411
1357,"Worthington, Ohio, USA",40.0931191,-83.017962
1358,"Paris, Seoul, NYC, Uqbar",48.856614,2.3522219
1359,AnimeWorld with my husbandos😏,,
1360,After 40 away years now FRG,,
1361,Arcade Legacy,39.3032217,-84.51800639999999
1362,Panamá,8.537981,-80.782127
1363,Breda,32.781621,-96.78046890000002
1364,"Idaho, USA",44.0682019,-114.7420408
1365,#IA04 Progressive Dem Voter,,
1366,"Tempe, AZ",33.4255104,-111.9400054
1367,Vegas,36.1699412,-115.1398296
1368,"seattle, wa",47.6062095,-122.3320708
1369,"Bayern, Deutschland",48.7904472,11.4978895
1370,"ÜT: 35.802452,-78.442655",30.2849185,-97.7340567
1371,"Edmonton, Alberta",53.5461245,-113.4938229
1372,Mors Vallis ,,
1373,"Mpumalanga, South Africa",-25.565336,30.5279096
1374,"Dublin, Ireland",53.3498053,-6.2603097
1375,Arlington//Brooklyn,40.6806337,-73.8872698
1376,"frisco, tx",,
1377,"Tarzana, Calif.",34.1494848,-118.5506158
1378,"Edinburgh, Scotland",55.953252,-3.188267
1379,Saturn 🪐   ,,
1380,in a world humans can't relate,,
1381,Muncie,40.1933767,-85.3863599
1382,Canada. And Proud of it!!,,
1383,Australia ,-25.274398,133.775136
1384,"Göteborg, Sverige ",57.70887,11.97456
1385,"Brisbane, Queensland",-27.4697707,153.0251235
1386,"Bossier City, LA",32.5159852,-93.7321228
1387,Kumeyaay land,,
1388,Siena,41.82333330000001,-71.4258333
1389,"Lakewood, Washington",47.1717649,-122.518458
1390,"Distrito Federal, México",19.4326077,-99.133208
1391,"Leipzig, Deutschland",51.3396955,12.3730747
1392,"Melbourne, Australia",-37.8136276,144.9630576
1393,"Bristol, England",51.454513,-2.58791
1394,Limerick,44.0292231,-76.04298349999999
1395,"Myrtle Beach, SC",33.6890603,-78.8866943
1396,"Glasgow, Scotland",55.864237,-4.251806
1397,"iPhone: 33.864258,-118.403572",,
1398,the OC,37.0221394,-93.2208172
1399,disgraceland,43.6612054,-79.4287281
1400,"Bengaluru, India",12.9715987,77.5945627
1401,Kansas,39.011902,-98.4842465
1402,"Madison, WI",43.0730517,-89.4012302
1403,"Yorkshire, The World",54.2333853,-1.3449562
1404,Somewhere up North.,59.3198462,18.0435851
1405,In my mind,,
1406,To a world without borders,,
1407,Gold Coast,-28.016667,153.4
1408,"Glasgow School of Art, Glasgow",55.866147,-4.2636933
1409,Aotearoa,-40.900557,174.885971
1410,Tamil Nadu,11.1271225,78.6568942
1411,"Shimla, Himachal Pradesh",31.1048145,77.17340329999999
1412,Blackburrrrrrrrrrrn,,
1413,"New Orleans, LA",29.95106579999999,-90.0715323
1414,"Toluca Lake,CA",34.1501794,-118.3549609
1415,Burbank CA,34.1808392,-118.3089661
1416,Cambridge,52.2042666,0.1149085
1417,930 years in the future.,,
1418,"Toulouse, France",43.604652,1.444209
1419,No DM.Grazie,,
1420,Godric's Hollow Ϟ,,
1421,"Bangor, Northern Ireland",54.6541971,-5.6730648
1422,"Essex, England",51.57424469999999,0.4856781
1423,Bangalore,12.9715987,77.5945627
1424,location: by the free food,40.705667,-74.011882
1425,western NY state,43.3447295,-75.3878525
1426,People's Republic Of Liverpool,,
1427,"bay area, california, usa",37.8271784,-122.2913078
1428,"Lehigh Valley, Pa",40.58336389999999,-75.50437610000002
1429,"The Burg, KY ",38.0978697,-84.9520206
1430,"Gävle, Sverige",60.6748796,17.1412726
1431,"Colorado,  USA ",39.5500507,-105.7820674
1432,Croydon,51.376165,-0.098234
1433,"Midleton, Cork East",51.9143321,-8.1726276
1434,Hyderabad,17.385044,78.486671
1435,"Where I want to be, but wish it was trumpless, USA",,
1436,"Hong Kong, China",22.3193039,114.1693611
1437,harlem❤charlit❤detroit❤paisley park💙mommy,40.8115504,-73.9464769
1438,"Kashmor, Pakistan",28.4481593,69.5857077
1439,"St. John's, NL",47.5615096,-52.7125768
1440,"Huddersfield, England",53.645792,-1.7850351
1441,Newbury Park CA,34.1805403,-118.9070887
1442,MUMBAI MAHARASHTRA,19.0759837,72.8776559
1443,Europe,54.5259614,15.2551187
1444,"tidur, @O3DARKSIDE.",,
1445,United States 🇺🇸,,
1446,Big Blue Nation,,
1447,Brasil,-14.235004,-51.92528
1448,"Maine, USA",45.253783,-69.4454689
1449,"Mendham, NJ",40.7870633,-74.57656860000002
1450,"Dublin, Republic of Ireland",53.3498053,-6.2603097
1451,🇫🇷🇺🇸,,
1452,maryland,39.0457549,-76.64127119999999
1453,"Armpit, TX",29.3599337,-100.917802
1454,Philly burbs #PA06,39.9525839,-75.1652215
1455,"Ames, IA",42.0307812,-93.63191309999999
1456,आर्यावर्त भारतवर्ष ,23.6798876,87.69388239999999
1457,Eating ,36.1259638,-94.1564551
1458,Spain 🇪🇸,,
1459,"Montréal, Québec",45.5016889,-73.567256
1460,Previous India now Canada,43.6718456,-79.3777601
1461,Mumbai,19.0759837,72.8776559
1462,RTP,35.8991678,-78.86364019999999
1463,"Jacksonville, Florida",30.3321838,-81.65565099999999
1464,"39.755226,-86.377888",39.754963,-86.3785364
1465,"Saratoga Springs, NY",43.0831301,-73.7845651
1466,North Carolina,35.7595731,-79.01929969999999
1467,"West Palm Beach, FL",26.7153424,-80.0533746
1468,"York Region, Ontario",43.9884612,-79.4703885
1469,"Boca Raton, FL",26.3683064,-80.1289321
1470,Tom’s Diner,39.74025,-104.97963
1471,North/South - South/North,28.2454229,-81.2726479
1472,Graymalkin Lane,41.3352912,-73.6006074
1473,los angeles,34.0522342,-118.2436849
1474,"Gardendale, AL",33.6601033,-86.8127702
1475,"Miami, Florida.",25.7616798,-80.1917902
1476,"Columbus, Ohio ",39.9611755,-82.99879419999999
1477,On a Sand Bar,39.0559656,-94.46336459999999
1478,emu,42.2414157,-83.6167242
1479,Long Island,40.789142,-73.13496099999999
1480,My iPhone,37.7455369,-97.2454023
1481,"Manchester, United Kingdom",53.4807593,-2.2426305
1482,Pizza Box,43.0901052,-75.2133783
1483,"Peterborough, Ontario, Canada",44.309058,-78.31974699999999
1484,"East Greenbush, NY",42.5909135,-73.7017858
1485,"Columbus, OHIO",39.9611755,-82.99879419999999
1486,"Mississippi, USA",32.3546679,-89.3985283
1487,"Palma, España",39.5696005,2.6501603
1488,Czech Republic,49.81749199999999,15.472962
1489,"Freehold, NJ",40.2136754,-74.3000878
1490,"Metro Boston, MA, USA",42.3600825,-71.0588801
1491,Frankfurt|Hong Kong|Singapore,50.103119,8.691367999999999
1492,ici et ailleurs,45.54615,-73.625297
1493,"Sandstrand, Deutschland",54.3120079,8.5877246
1494,Four Seasons Total Landscaping,40.0263236,-75.0302158
1495,"Germany, France, Austria",,
1496,Somewhere in Iowa,41.7007282,-93.4626744
1497,Chattanooga WAS: Athens GA,33.9570052,-83.37893389999999
1498,PA but ❤️ is still in MD,41.2033216,-77.1945247
1499,Dundeee,56.462018,-2.970721
1500,New Orleans,29.95106579999999,-90.0715323
1501,"Folly Beach, SC",32.6551798,-79.94036729999999
1502,"Richmond, VA",37.5407246,-77.4360481
1503,Raleigh,35.7795897,-78.6381787
1504,Rogers AR,36.3320196,-94.1185366
1505,Spain Asturias,43.3613953,-5.8593267
1506,"Miami Beach, FL",25.790654,-80.1300455
1507,DFW Metroplex - Texas,32.7078751,-96.9209135
1508,"Maple Park, IL",41.9075282,-88.59924939999999
1509,"Brooklyn, NY | she/her",40.6781784,-73.9441579
1510,Wales,52.1306607,-3.7837117
1511,"Apache Territory, NM",33.15664840000001,-105.7799416
1512,"York, England",53.95996510000001,-1.0872979
1513,France,46.227638,2.213749
1514,The Borderland,31.887182,-106.5922924
1515,Boise Idaho,43.6150186,-116.2023137
1516,"🇺🇸,🇨🇭,🇮🇪",,
1517,"haggis, irn bru & ceilidhs ",,
1518,Manchester,53.4807593,-2.2426305
1519,irl,50.6589889,-120.4017486
1520,Currently in Maryland…..🇺🇸,39.0457549,-76.64127119999999
1521,"Lakeland, FL",28.0394654,-81.9498042
1522,"Blacksburg, VA",37.2295733,-80.4139393
1523,Gold Beach,42.4073334,-124.4217741
1524,"Warrenton, Virginia",38.7134516,-77.7952712
1525,"Thame, Oxfordshire",51.746997,-0.9741879999999999
1526,"Brussels, Belgium",50.8503396,4.3517103
1527,Adjust schedule accordingly.,,
1528,acolá,,
1529,"Key Worker, Plymouth, England",50.3754565,-4.1426565
1530,Quarantined on Land ,,
1531,"Sheffield, England",53.38112899999999,-1.470085
1532,"Cape Town, Jhb, Africa",-33.9248685,18.4240553
1533,"559, California ",36.7357923,-119.6802914
1534,Mayfield Middle School,35.4839646,-97.6142454
1535,"Lyon County, Kentucky, USA",37.0247261,-88.0900762
1536,"Thorofare, NJ",39.8422093,-75.19693459999999
1537,"Adelaide, Australia",-34.9284989,138.6007456
1538,Toronto ON,43.653226,-79.3831843
1539,"Wuppertal, Germany",51.2562128,7.150763599999999
1540,"Townsend,MA",42.6667718,-71.70512649999999
1541,Mars 👽,,
1542,"Toronto, Ontario, Canada",43.653226,-79.3831843
1543,"Atascadero, CA",35.4894169,-120.6707255
1544,"The Middle of Nowhere, USA",,
1545,Natural Bridge Elementary,37.6202946,-79.499265
1546,"Phoenix, AZ, USA",33.4483771,-112.0740373
1547,deep in existential crisis,,
1548,Banks of the Piscataqua,43.076437,-70.757002
1549,Blue dot in a red state,,
1550,"Lives in London, works everywhere else in the world. Committed internationalist.",51.5073509,-0.1277583
1551,"Dallas-Denton-Fort Worth, TX",33.2148412,-97.13306829999999
1552,Location:  World of Tomorrow,,
1553,Cleveland,41.49932,-81.6943605
1554,"Saint Paul, MN",44.9537029,-93.0899578
1555,"Balangir, Odisha ",20.7011108,83.4846069
1556,"Tampa, Fl and Atlanta, GA ",27.9831232,-82.45790679999999
1557,"Odessa, Texas",31.8456816,-102.3676431
1558,"Long Beach, Ca",33.7700504,-118.1937395
1559,CT,41.6032207,-73.087749
1560,Midcoast Maine,43.9140203,-69.9669091
1561,"Missoula, MT",46.8721284,-113.9940314
1562,"Little Rock, AR",34.7464809,-92.28959479999999
1563,"ÜT: 39.9681987,-75.5243276",30.2849185,-97.7340567
1564,a box,38.8938808,-77.0715055
1565,citizen of the world,39.0645248,-94.58994969999999
1566,"Pittsford, NY",43.0906186,-77.5149969
1567,North Carolina US,35.7595731,-79.01929969999999
1568,"Windermere, FL",28.4955593,-81.53479519999999
1569,"Utica, NY - Severn, MD",39.1158214,-76.6498002
1570,zgz,41.6488226,-0.8890853
1571,"Toms River, NJ",39.9537358,-74.1979458
1572,"Oxford, MS",34.3668299,-89.51863499999999
1573,St Xavier HS,39.208715,-84.503762
1574,"ÜT: 38.931728,-77.075842",30.2849185,-97.7340567
1575,Tennessee,35.5174913,-86.5804473
1576,"Tacoma, WA - Planet Earth",47.192034,-122.41973
1577,"Elk Horn, IA",41.591655,-95.05999039999999
1578,Indianapolis ,39.768403,-86.158068
1579,North-West NJ,40.0583238,-74.4056612
1580,"Rapid City, SD",44.0805434,-103.2310149
1581,parts unknown ,36.4012251,-93.73784429999999
1582,Right Behind You,,
1583,New Hampshire,43.1938516,-71.5723953
1584,"Dillon, SC",34.4165505,-79.3711579
1585,"Monroe, LA",32.5093109,-92.1193012
1586,19 | canada ,56.130366,-106.346771
1587,"Puri,Odisha, India",19.8134554,85.8312359
1588,women want me fish fear me,,
1589,"South Portland, ME",43.6414716,-70.2408811
1590,He/Him Buffalo NY,42.88644679999999,-78.8783689
1591,Washington State,47.7510741,-120.7401385
1592,"Whittier, CA",33.9791793,-118.032844
1593,"Ontario, CA",34.0633443,-117.6508876
1594,"Milwaukee, WI",43.0389025,-87.9064736
1595,CA 🇺🇸,36.778261,-119.4179324
1596,Anthill#9,,
1597,Colorado & NY ,38.9442251,-104.7928447
1598,Denmark :(,56.26392,9.501785
1599,"Richardson, TX",32.9483335,-96.7298519
1600,"Belmont, MA",42.3956405,-71.1776114
1601,"Seattle, WA.",47.6062095,-122.3320708
1602,With my family or computer,,
1603,"Washington, D.C./Jeannette, PA",38.9071923,-77.0368707
1604,Edmonton,53.5461245,-113.4938229
1605,Denver Colorado,39.7392358,-104.990251
1606,BLACK LIVES MATTER,42.3106891,-71.10944230000001
1607,"Charleston, WV",38.3498195,-81.6326234
1608,The Black Lodge,47.6228269,-122.3292533
1609,lost.,47.766638,-94.08350809999999
1610,"Ewing, NJ",40.2599864,-74.79091249999999
1611,"Lagos, Nigeria",6.5243793,3.3792057
1612,Gunai & Kurnai Peoples' Lands,,
1613,"Harper, TX",30.2999195,-99.2442144
1614,Tel Aviv,32.0852999,34.78176759999999
1615,"Melbourne, Australia ",-37.8136276,144.9630576
1616,Cubana,21.521757,-77.781167
1617,UCSB,34.4139629,-119.848947
1618,New Zealand via San Diego soon,32.735316,-117.149046
1619,Between two oceans,,
1620,Harry's Gucci purse,,
1621,Saudi Arabia - Riyadh,24.7135517,46.6752957
1622,"Uyo, Nigeria",5.0377396,7.9127945
1623,provo,40.2338438,-111.6585337
1624,Nairobi Kenya,-1.2920659,36.8219462
1625,"Somewhere Over Here, I think",,
1626,Probably Hell,,
1627,"Auckland, New Zealand",-36.84830480000001,174.7624886
1628,"The Woodlands, TX USA",30.1658207,-95.46126249999999
1629,Bantul - Magelang,-7.8748176,110.3255365
1630,kat she/her 🇺🇸🇲🇽,,
1631,"Florence, Tuscany",43.7695604,11.2558136
1632,The Epicenter,30.4507977,-91.12576759999999
1633,Bhutan,27.514162,90.433601
1634,D-Town,28.0192351,-82.77487690000001
1635,The BX ,35.0117989,-85.24199680000001
1636,HELL,42.43472,-83.985
1637,Ferndale WA,48.8464991,-122.5910056
1638,"Winchester, California",33.706966,-117.0844733
1639,sf,37.7749295,-122.4194155
1640,California🌴,36.778261,-119.4179324
1641,Arlington VA,38.8799697,-77.1067698
1642,"Bhubaneshwar, India",20.2960587,85.8245398
1643,"TN, USA",35.5174913,-86.5804473
1644,"A galaxy far,far away",28.357063,-81.5602228
1645,boise,43.6150186,-116.2023137
1646,Dresden,51.0504088,13.7372621
1647,Sac x Van,38.5815719,-121.4943996
1648,"Sector 78, Noida",28.5613693,77.3847351
1649,"Delhi, India",28.7040592,77.10249019999999
1650,"Los Angeles, CA ",34.0522342,-118.2436849
1651,"Alfred Centre, Melbourne 3004",-37.8461948,144.9845331
1652,bay area,37.8271784,-122.2913078
1653,"Pass Christian, MS",30.3157527,-89.2475429
1654,SF Bay Area,37.7749295,-122.4194155
1655,"Victoria, Australia",-37.4713077,144.7851531
1656,Tucson,32.2226066,-110.9747108
1657,"The Future, USA",,
1658,"Clayton, Georgia",34.8781479,-83.4009933
1659,"Fort Hood, TX",31.13633149999999,-97.7797049
1660,10880 Malibu Point. 90265,34.0311189,-118.6823075
1661,"California, USA, Earth",35.4709811,-115.5455518
1662,"Madrid, Spain",40.4167754,-3.7037902
1663,"Baden-Württemberg, Deutschland",48.6616037,9.3501336
1664,"Howell, NJ",40.1645785,-74.2082671
1665,Not always in North America,54.5259614,-105.2551187
1666,Turkey / İstanbul,41.0082376,28.9783589
1667,"Oviedo, FL",28.669997,-81.20812029999999
1668,"Ogun, Nigeria",6.997974699999999,3.4737378
1669,Click the link ,,
1670,Neither Here Nor There ,30.2685042,-97.74142839999999
1671,red2blue state is my goal,,
1672,"Carlisle, England",54.892473,-2.932931
1673,"Karachi, Pakistan",24.8607343,67.0011364
1674,Knowhere,37.7873291,-122.405155
1675,Ireland/Eire,53.1423672,-7.692053599999999
1676,"Farnborough, England",51.2868939,-0.7526149999999999
1677,Somewhere in the world,,
1678,"Truro, Cornwall",50.263195,-5.051041
1679,"Buffalo, New York",42.88644679999999,-78.8783689
1680,Israel & USA,31.046051,34.851612
1681,Does it really even matter?,,
1682,Idaho,44.0682019,-114.7420408
1683,Iowa,41.8780025,-93.097702
1684,Los Angeles / Scarif (she/her),34.0522342,-118.2436849
1685,CA49,33.2813392,-117.4086488
1686,"Los Angeles/Palm Springs, Ca",33.8302961,-116.5452921
1687,"Palm Desert, CA",33.7222445,-116.3744556
1688,"Hollywood, CA
",34.0928092,-118.3286614
1689,he/him | aro/ace | ISTP-A,,
1690,Stockholm,59.32932349999999,18.0685808
1691,Montreal QC,45.5016889,-73.567256
1692,At home. ,36.0908081,-95.8545326
1693,"Third Rock From Sun, Milky Way",,
1694,East Atlanta,33.7366044,-84.3357992
1695,"Brighton, CO",39.9852617,-104.8205283
1696,"Sogn og Fjordane, Norway",61.5539435,6.3325879
1697,Punkrock. Norte del Villamarin,37.3565037,-5.9817521
1698,"West Region, Singapore",1.3403898,103.7089875
1699,New Delhi,28.6139391,77.2090212
1700,Fields in middle of nowhere,,
1701,Northern Utah,41.2106324,-111.9488298
1702,"Dublin City, Ireland",53.3498053,-6.2603097
1703,hell,42.43472,-83.985
1704,Crazy Florida,28.6157448,-81.43737829999999
1705,Franklins Tower,38.9016809,-77.0322887
1706,The Most Populated Time Zone,,
1707,"Vashon, WA",47.4473204,-122.4598502
1708,A little island called UK,55.378051,-3.435973
1709,"Lucknow, India.",26.8466937,80.94616599999999
1710,"Venḓa,	Ṋiani",11.3773923,-8.3886892
1711,"Sleepy Hollow, NY",41.085652,-73.85846839999999
1712,"Delaware, U.S.A. 🇺🇸",38.9108325,-75.52766989999999
1713,"Niagara Falls, NY",43.0962143,-79.0377388
1714,nyc y puerto rico,40.8345095,-73.8290179
1715,"Spotsylvania, VA",38.204165,-77.6077865
1716,Great Whin Sill,,
1717,"iPhone: 30.286758,-81.438278",,
1718,Near George Soros in Manhattan,40.7830603,-73.9712488
1719,"Cherry Hill, NJ",39.926813,-75.0246312
1720,Maryland by way of Long Island,39.4180928,-76.5425255
1721,Houston-TX2,29.7256229,-95.3905328
1722,"Chicago, IL USA",41.8781136,-87.6297982
1723,Made in Scotland from girders,56.49067119999999,-4.2026458
1724,JAPAN,36.204824,138.252924
1725,Deutschland,51.165691,10.451526
1726,"Hawick, Scottish Borders ",55.42706,-2.780914
1727,"Netley, Hampshire, England",50.8757781,-1.3515529
1728,"San Francisco, California",37.7749295,-122.4194155
1729,Entebbe,0.0511839,32.463708
1730,You will not find me..,,
1731,"Berlin, EU",52.52000659999999,13.404954
1732,Sa Na Ne,,
1733,Slovak Republic,48.669026,19.699024
1734,MIAMI - FLORIDA - 305,25.8067094,-80.2615606
1735,www.heldenmommy.com/coaching ,,
1736,"Dublin, Ireland ",53.3498053,-6.2603097
1737,"Grand Blanc, MI",42.9275277,-83.6299518
1738,"West Reading, PA",40.33370379999999,-75.9474322
1739,Sydney ,-33.8688197,151.2092955
1740,Ramstein-Miesenbach,49.445759,7.554540399999999
1741,"Marietta, IA",42.0578935,-93.0375914
1742,Side 3,39.7278448,-105.0030941
1743,"Columbus, Oh",39.9611755,-82.99879419999999
1744,Washington D.C.,38.9071923,-77.0368707
1745,"HALIFAX,NS",44.64876350000001,-63.5752387
1746,"Wallingford, CT",41.4570108,-72.8230736
1747,DMV,37.2270469,-95.716011
1748,Plague Nation,,
1749,"NYC, Los Angeles, Miami, Vegas",40.7127753,-74.0059728
1750,she/her | BLM,41.1688541,-104.8267927
1751,Above the clouds🌫️,,
1752,"Jacksonville, N.C. ",34.7540524,-77.4302414
1753,ⅩⅦ time condensed  　҉⃝ 　,,
1754,"Global Community, Pennsylvania",41.2033216,-77.1945247
1755,"Southbridge, MA",42.0751065,-72.0333905
1756,Boston,42.3600825,-71.0588801
1757,"La Crosse, WI",43.8137751,-91.25190169999999
1758,Old Cali-Valley Girl in IL,40.6331249,-89.3985283
1759,"Toronto, ON",43.653226,-79.3831843
1760,"Virginia (VA), USA",36.8529263,-75.97798499999999
1761,The Home of Rock n' Roll! #CLE,41.5085414,-81.6953685
1762,"Pasadena, CA",34.1477849,-118.1445155
1763,"Johnstown, PA",40.32674069999999,-78.9219698
1764,"Henderson, Nevada, U.S.A",36.0395247,-114.9817213
1765,Earth here and there....Gen X.,,
1766,Sweet home Chicago,33.4988756,-111.9180399
1767,"Brownsville, Tx",25.9017472,-97.4974838
1768,𝓐𝓵𝓪𝓼𝓴𝓪,64.2008413,-149.4936733
1769,IL06,42.18157009999999,-88.1291387
1770,"Cumberland, Nova Scotia",45.8006463,-63.85939990000001
1771,"Kingston, Ontario, Canada",44.2311717,-76.4859544
1772,"Wembley, United Kingdom",51.550501,-0.3048409
1773,"Melrose, MA",42.4584292,-71.0661633
1774,gotexo,,
1775,"Midsomer Norton, England",51.285199,-2.485936
1776,  #OurHouse 🌎🌍🌏,,
1777,"Ormond Beach, FL",29.2858129,-81.0558894
1778,"MainLine, PA",39.977895,-75.4343229
1779,somewhere in the usa,,
1780,"Farmington, ME",44.67049979999999,-70.1512169
1781,"Saint-Chinian, France",43.418646,2.945129
1782,New York City ,40.7127753,-74.0059728
1783,"New York City, NY",40.7127753,-74.0059728
1784,Scottish Borders,55.54856969999999,-2.7861388
1785,"Manning,SC",33.6951627,-80.2109134
1786,"Rochester, NY",43.15657789999999,-77.6088465
1787,"Stockton, CA 🔛 San Jose, CA",37.3382082,-121.8863286
1788,"New Paltz, NY - New York City",41.7475933,-74.0868095
1789,Anywhere but here...,47.8457947,-122.2929867
1790,BUF ✈️ STL ✈️ NYC ,38.6270025,-90.19940419999999
1791,Atlanta GA,33.7489954,-84.3879824
1792,Unova Reigon ,,
1793,Northern IL,38.0778764,-88.7686382
1794,"Royal Oak, MI",42.4894801,-83.1446485
1795,"Long Island, New York, USA",40.789142,-73.13496099999999
1796,Hollywood North,43.6429251,-79.3741862
1797,"Pleasant Prairie, WI",42.5530753,-87.9334118
1798,"Midwest, USA",44.97781090000001,-93.26499439999999
1799,"This galaxy, for now.",,
1800,Covfefe fund:,,
1801,"City so nice, named it twice!",,
1802,"St. Louis, M",38.6270025,-90.19940419999999
1803,"Crystal City, Missouri",38.2190704,-90.38516369999999
1804,Multiple DebooSStSS Via NaziSS,,
1805,"40.842765,-73.938592",40.8428713,-73.93868950000001
1806,Out and About,46.2311472,-119.0903443
1807,"Harrisburg, PA",40.2731911,-76.8867008
1808,"Faribault, MN",44.2949636,-93.268827
1809,Southwest Ontario,34.0633443,-117.6508876
1810,MN,46.729553,-94.6858998
1811,IL ~ my ❤️ is in NY ~Love Wins,40.6331249,-89.3985283
1812,"Lancaster, NY",42.9006144,-78.6703062
1813,Haunted Log cabin in Wyoming,41.13320040000001,-104.8176919
1814,"Tennessee, USA  & Brusssels ,B",35.5174913,-86.5804473
1815,"Fairfax Station, VA",38.8015452,-77.3254485
1816,Kitchener,43.4516395,-80.4925337
1817,"Française Pouzauges, France ",46.78264799999999,-0.837243
1818,Moving to Spain,40.4308985,-3.8107196
1819,"New Haven, CT",41.308274,-72.9278835
1820,"Terrell, TX",32.7359626,-96.2752569
1821,Northern NJ,40.9290779,-74.077072
1822,"East Tennessee, USA",35.5174913,-86.5804473
1823,കേരളം,10.8505159,76.2710833
1824,Delmarva,38.5826603,-75.52766989999999
1825,Florida USA; Romans 8:28,27.6648274,-81.5157535
1826,South Texas,31.9685988,-99.9018131
1827,Nashville/Bowling Green ,36.9437725,-86.4805817
1828,Lagos Nigeria,6.5243793,3.3792057
1829,Gallifrey ,,
1830,"West Hartford, CT (+NYC)",41.7620842,-72.7420151
1831,Kuala Lumpur,3.139003,101.686855
1832,"Mallow, Ireland",52.13897619999999,-8.6539164
1833,"København, Danmark",55.6760968,12.5683372
1834,"Panama City, FL",30.1588129,-85.6602058
1835,Illinois ,40.6331249,-89.3985283
1836,"Atlanta, Georgia",33.7489954,-84.3879824
1837,Nc,35.7595731,-79.01929969999999
1838,Southern California resident,34.0482908,-118.2406139
1839,County of Kings,36.0988489,-119.8815203
1840,"Beautiful Portland, OR",45.5289109,-122.8170479
1841,Socially Distancing,,
1842,"East Java, Indonesia",-7.5360639,112.2384017
1843,"East Carolina University/Vidant Health System, Greenville NC",35.60866,-77.40221640000001
1844,"Florence, AL",34.79981,-87.677251
1845,"Boston, MA & Waterloo, SC",34.3578866,-82.05545819999999
1846,"Acworth, Georgia",34.0659329,-84.6768796
1847,SE Wisconsin USA,43.7844397,-88.7878678
1848,NYC. jina.n.huh@gmail.com,40.7127753,-74.0059728
1849,Beautiful Wiltshire,51.2620324,-2.1833948
1850,"Springfield, IL",39.78172130000001,-89.6501481
1851,"Chukson, Sonoran Desert ",32.244013,-111.168174
1852,middle of the mitten,43.4090418,-84.6084156
1853,Kansas City-ish,39.0997265,-94.5785667
1854,"Lawrence, KS",38.9716689,-95.2352501
1855,Dallas,32.7766642,-96.79698789999999
1856,Eastcoaster,40.2887809,-76.65474689999999
1857,WI,43.7844397,-88.7878678
1858,"Blue Virginia, USA",36.8270338,-83.0682238
1859,"Jacksonville, Fl",30.3321838,-81.65565099999999
1860,"KC now, formerly SATX MIA NYC",39.0997265,-94.5785667
1861,ShutFuck Mountain,,
1862,"Sheltering in place, NJ",40.0583238,-74.4056612
1863,water's edge,41.2796505,-72.4373407
1864,SoCal ,34.9592083,-116.419389
1865,"Alabama, and sometimes DC",37.09024,-95.712891
1866,Central Ohio ish,39.9531067,-82.9794727
1867,"Sept 2020: Now PERTH, ON 🇨🇦",-31.9505269,115.8604572
1868,Seattle Washington USA,47.6062095,-122.3320708
1869,On your left. ,38.2456728,-85.72825379999999
1870,"Swansea, Wales",51.62144,-3.943645999999999
1871,"San Rafael, CA",37.9735346,-122.5310874
1872,"Yucca Valley, CA",34.1141743,-116.432235
1873,"Mississauga, Ontario",43.5890452,-79.6441198
1874,"Ellicott City, MD",39.2673283,-76.7983067
1875,"Laguna Niguel, CA 92677",33.5320292,-117.702148
1876,vashon island,47.4473204,-122.4598502
1877,Where the wind takes me. ,,
1878,"Clifton Park, NY",42.844668,-73.8183804
1879,"KW Ontario, Canada",43.4516395,-80.4925337
1880,"St Paul, MN",44.9537029,-93.0899578
1881,"Dallas,Texas",32.7766642,-96.79698789999999
1882,My house,33.202584,-87.55306639999999
1883,Colombia,4.570868,-74.297333
1884,A Blue State,41.3149066,-72.9174314
1885,"seventeen, she/her ",,
1886,hogwarts ,28.4796116,-81.4693747
1887,Minnesota,46.729553,-94.6858998
1888,Ontario's South Coast,42.7541617,-80.2660532
1889,"Jacksonville Beach, FL",30.2841224,-81.3961338
1890,"Nampa, ID",43.5788175,-116.55978
1891,"Okeechobee, Fla. ",27.2439349,-80.82978279999999
1892,"Bonn, Germany / Deutschland",50.73743,7.0982068
1893,"San Diego, Calif., U.S.A.",32.715738,-117.1610838
1894,where I'm at!,,
1895,"NJ, Philly, TN, ✈️ Las Vegas",39.8743959,-75.2424229
1896,fresno ,36.7377981,-119.7871247
1897,Arizona 🌵,34.0489281,-111.0937311
1898,"Gainesville, Florida 🇺🇲",29.6516344,-82.32482619999999
1899,In My Own Little World :),35.4909155,-94.2212452
1900,"Woburn, MA",42.4792618,-71.1522765
1901,Brooklyn USA,40.6781784,-73.9441579
1902,"Forest, VA",37.3637534,-79.289749
1903,"Norman, OK",35.2225668,-97.4394777
1904,"Chicago, Illinois ",41.8781136,-87.6297982
1905,A Times Book of the Year,,
1906,Saint Louis ,38.6270025,-90.19940419999999
1907,Ⴑ ƚiW,,
1908,Williamsport Pa,41.2411897,-77.00107860000001
1909,"Visited 47 countries, lived in Middle East for 2 yrs. Climbed Kili, '17, Antarctica & South Pole, '18. Arctic & North Pole, June '19.",29.2985278,42.5509603
1910,usa,37.09024,-95.712891
1911,"Miami,  Florida",25.7616798,-80.1917902
1912,KC,39.0997265,-94.5785667
1913,Peyote,31.7306629,-102.3550607
1914,Beantown,42.3600825,-71.0588801
1915,"Beeswax, None of Yours Inc. ",,
1916,Somewhere In Ohio ,40.06193529999999,-83.07543880000001
1917,"Cambridge, MA",42.3736158,-71.10973349999999
1918,Third planet from Sol,,
1919,"warwickshire, UK ",52.2671353,-1.4675216
1920,"RPI, Troy, NY 12180",42.7297628,-73.67888839999999
1921,My Kitchen (Bremerton/Seattle),47.5650067,-122.6269768
1922,NY/NJ,40.0583238,-74.4056612
1923,"Syracuse, NY",43.0481221,-76.14742439999999
1924,Florida/Maryland,28.0166956,-82.1387445
1925,"٩(●̮̮̃•̃)۶ brooklyn yo, nyc",40.6694456,-73.9869276
1926,so far away north France,,
1927,The world,36.092086,-95.791331
1928,"washington, dc",38.9071923,-77.0368707
1929,My Underground Lair,,
1930,Inauguration: 01/20/2021 ,,
1931,not palestine :(,,
1932,Steelton,40.2353679,-76.84136130000002
1933,Sur de Vermont,44.5588028,-72.57784149999999
1934,Central Florida,28.0582985,-81.8661442
1935,Earth 1,39.9275808,-105.1333327
1936,"Arlington, TX ",32.735687,-97.10806559999999
1937,"Seoul, South Korea",37.566535,126.9779692
1938,international,37.0936984,-95.58111699999999
1939,FL 8,28.0784244,-80.7214417
1940,Kackalacky,35.7293041,-79.17610429999999
1941,"Fairless Hills, PA",40.1795537,-74.85516439999999
1942,Bungoma county,0.8084283,34.59713199999999
1943,Whoknowswhere?,,
1944,JST or BST or GMT　RT多め,,
1945,"Bear, DE",39.6292788,-75.6582628
1946,Benelux,43.034901,-87.90708409999999
1947,Velaris,,
1948,"Timmins, Ontario",48.4758208,-81.3304953
1949,San Diego north county,33.1221548,-117.2911248
1950,in the social distance,,
1951,Arkansas,35.20105,-91.8318334
1952,Zoo York City,,
1953,San Antonio Texas,29.4241219,-98.49362819999999
1954,"Calgary, AB Canada",51.04473309999999,-114.0718831
1955,Bay Area....♡Cali Livin' ♡,37.8271784,-122.2913078
1956,"Parkland, Florida ",26.3107774,-80.25322489999999
1957,france ,46.227638,2.213749
1958,N.E. Ohio,41.26178729999999,-81.1637245
1959,With Carmen Sandiego,,
1960,Admins UK 🇬🇧 & US 🇺🇸,,
1961,Seattle WA,47.6062095,-122.3320708
1962,Texan living in Ohio,31.9685988,-99.9018131
1963,"KY Girl👉🏻in Connecticut, USA",37.8393332,-84.2700179
1964,"Laguna Beach, CA",33.5427189,-117.7853568
1965,Behind enemy lines,41.7194232,-70.4836644
1966,"Lake Wales, FL",27.9014133,-81.58590989999999
1967,"Waukesha, WI",43.0116784,-88.2314813
1968,#Bernie2020,33.9802298,-117.3775072
1969,Occupied Coast Salish Land,,
1970,"Swamptown, USA",,
1971,"Berlin, Best City in Germany",52.52000659999999,13.404954
1972,"Santa Barbara, CA",34.4208305,-119.6981901
1973,they / them,,
1974,Ballerville,,
1975,The Bay(con) Area,37.5938395,-122.36527
1976,"Crossroads of America (IN), USA",,
1977,Socially Distant,,
1978,"Stuttgart, Deutschland",48.7758459,9.1829321
1979,East of Eden & West of the 405,33.8138612,-118.1684183
1980,"El Paso, TX",31.7618778,-106.4850217
1981,#EarthJustice,40.70655199999999,-74.00919499999999
1982,Brazil,-14.235004,-51.92528
1983,ATX 🔜 NYC,40.7127753,-74.0059728
1984,⚧️⛧🏳️‍🌈🜏♒,,
1985,"Portsmouth, UK.",50.8197675,-1.0879769
1986,West Los Angeles,34.0412085,-118.442596
1987,MG - RJ,,
1988,"Malibu Hills, CA",34.047507,-118.7442538
1989,The OC,37.0221394,-93.2208172
1990,British Columbia,53.7266683,-127.6476205
1991,"Kirksville, MO",40.19475389999999,-92.5832496
1992,Falmouth Total Landscaping,,
1993,"Long Island, New York",40.789142,-73.13496099999999
1994, OH,40.4172871,-82.90712300000001
1995,Here Now,37.09024,-95.712891
1996,Themyscira ,,
1997,somewhere,38.87563129999999,-77.006195
1998,Here and there,,
1999,"Halifax, NS",44.64876350000001,-63.5752387
2000,"Salinas, CA via CO",,
2001,"Oskaloosa, IA",41.2916728,-92.6493595
2002,by the wine,38.709138,-9.1437996
2003,"Chicago, IL and Driggs, ID",41.8781136,-87.6297982
2004,"s. pasadena,ca",34.1477849,-118.1445155
2005,Chicagoland ,41.7435073,-88.0118473
2006,🇨🇦 ,,
2007,"Small town, small state",,
2008,"Lake George,  NY",43.4261809,-73.71234079999999
2009,"Aguada, PR",18.3801579,-67.188704
2010,"Atlanta and Blue Ridge, GA",33.8496473,-84.42921919999999
2011,youtube.com/c/MaggiCassell,,
2012,"New Hyde Park, NY",40.7351018,-73.6879082
2013,LCSCA,,
2014,Ukraine,48.379433,31.1655799
2015,The DMV,37.7215722,-97.3609963
2016,I O W A   ,41.8780025,-93.097702
2017,Mid-Atlantic,40.4479925,-79.99285259999999
2018,"panama city, fla",30.1588129,-85.6602058
2019,"Kalamazoo, MI",42.2917069,-85.5872286
2020,"48 Hester Street, NYC, NY, USA",40.7156098,-73.9904644
2021,N. Central Florida,28.0582985,-81.8661442
2022,"Kent, OH",41.1536674,-81.3578859
2023,Central FL - USA,28.0582985,-81.8661442
2024,In the sidecar ,29.650659,-82.323682
2025,"Brooklyn, NY, USA",40.6781784,-73.9441579
2026,world wide,40.0421401,-76.3888087
2027,"Corpus Christi, TX",27.8005828,-97.39638099999999
2028,⚢ | minor,36.1399399,-95.960975
2029,Cameo profile:,,
2030,الامارات العربية المتحدة,23.424076,53.847818
2031,Bay area 🪐 Pomona,37.8271784,-122.2913078
2032,Deutschland Schleswig-Holstein,54.21936720000001,9.696116700000001
2033,"Pismo Beach, CA",35.1427533,-120.6412827
2034,"Bay Area, California",37.8271784,-122.2913078
2035,"ÜT: 41.487572,-71.554408",30.2849185,-97.7340567
2036,"Sumner, WA",47.2031566,-122.2403966
2037,"Lee's Summit, Missouri",38.9108408,-94.3821724
2038,#BLM ,38.6026563,-121.3974698
2039,Mexico,23.634501,-102.552784
2040,"Vododara, India",22.3071588,73.1812187
2041,Great State Of Texas,33.62582930000001,-96.87080150000001
2042,"Medford, OR",42.3265152,-122.8755949
2043,"Upper Arlington, Ohio, USA",39.99450840000001,-83.0624078
2044,"Puriscal, Costa Rica",9.832137,-84.3331694
2045,"Brea, CA",33.916475,-117.9002918
2046,Yorkshire UK,53.9915028,-1.5412015
2047,Take a wild guess,,
2048,"Anaheim, CA",33.8365932,-117.9143012
2049,"Lake LBJ Sunrise Beach, TX",30.59963189999999,-98.41002739999999
2050,Somewhere over the Rainbow,40.7844769,-80.1486419
2051,The Multiverse,32.8259948,-97.1991729
2052,Local to SoCal,33.76704300000001,-118.11718
2053,Colorado Springs,38.8338816,-104.8213634
2054,Kansas City (MO or KS)? Yes!,39.200524,-94.59210979999999
2055,"NOR CAL Oregon Sioux City, IA",42.5083072,-96.4622971
2056,"Corona, CA",33.8752935,-117.5664384
2057,wherever the gig is,,
2058,"Bremerton, Wa",47.5650067,-122.6269768
2059,"Lake LBJ    Sunrise Beach, TX",30.59963189999999,-98.41002739999999
2060,"Neuquén, Argentina",-38.9516784,-68.0591888
2061,Fort Smith AR,35.3859242,-94.39854749999999
2062,myrtle beach,33.6890603,-78.8866943
2063,"Mission Viejo, CA",33.5968913,-117.6581562
2064,"Congresbury, England",51.370697,-2.810072
2065,"Barcelona, España",41.3850639,2.1734035
2066,"Pima County, Arizona",32.057499,-111.6660725
2067,he/him,,
2068,"Ciudad de México, México",19.4326077,-99.133208
2069,We share the same planet,,
2070,Somewhere sanity prevails,,
2071,England ,52.3555177,-1.1743197
2072,CD.MX.,19.4326077,-99.133208
2073,Denmark,56.26392,9.501785
2074,"Saint Gonna Tellya, California",36.778261,-119.4179324
2075,Home is Where the HEART is.,41.0897225,-85.10547860000001
2076,Anywhere but here,47.8457947,-122.2929867
2077,"Texas. Yes, Texas 😆",31.9685988,-99.9018131
2078,Texas * we’re getting better *,31.9685988,-99.9018131
2079,"Amarillo, Texas",35.2219971,-101.8312969
2080,upstate NY to Philly via NYC,,
2081,Southern Utah,37.6764461,-113.0713001
2082,"Deep State HQ, Los Angeles, California",34.0522342,-118.2436849
2083,"decatur, al",34.6059253,-86.9833417
2084,European Union 🇪🇺,54.5259614,15.2551187
2085,"New England & New Orleans, LA",30.0433075,-89.933606
2086,Atlanta,33.7489954,-84.3879824
2087,United States ,37.09024,-95.712891
2088,"Winter Garden, FL",28.5652787,-81.58618469999999
2089,"New York City, Los Angeles",34.041375,-118.253705
2090,"Early Pop, Poptropica",,
2091,Deep in Autumn..,,
2092,D.O.T.S,37.6820843,-95.4511132
2093,Republic of California,33.4267437,-117.6114376
2094,North Carolina ,35.7595731,-79.01929969999999
2095,michigan,44.3148443,-85.60236429999999
2096,"Irvington, New Jersey",40.7263249,-74.22864349999999
2097,beautiful NorCal,38.8375215,-120.8958242
2098,🤖 💭💨,,
2099,PA,41.2033216,-77.1945247
2100,#blueinflamingredstate,,
2101,"East Bay, CA.",37.8271784,-122.2913078
2102,Waterfront Communities-Toronto,43.6366747,-79.40647
2103,"Alameda, Sans Nuclear Wessles",37.7798721,-122.2821855
2104,"LA, GA, NC, MA - Berlin",35.7595731,-79.01929969999999
2105,Rethuglican Empire of Idaho,44.0682019,-114.7420408
2106,NYC/Ohio/PA,40.7127753,-74.0059728
2107,"LaSalle, IL",41.3621503,-89.0418249
2108,The Garden State,40.0583238,-74.4056612
2109,Feet dangling off The Black Cloud,,
2110,Overlooking the Ohio River,38.201162,-86.350977
2111,"Orlando, FL, USA",28.5383355,-81.3792365
2112,Middlemarch,42.75704899999999,-81.26449000000001
2113, NYC / LA,40.7213879,-73.99756359999999
2114,"Silicon Valley, California",37.387474,-122.0575434
2115,Near the Yawning Portal,,
2116,The Bad Place ,,
2117,"Mont Belvieu, TX",29.8477222,-94.89075799999999
2118,"NYC/Fla, USA",41.3317606,-74.35682
2119,"SW Florida, USA",27.6648274,-81.5157535
2120,Brussels Nicosia Paris,50.8503396,4.3517103
2121,Satan's Basement,,
2122,"Washington, DC  ",38.9071923,-77.0368707
2123,"Brownsville, TX",25.9017472,-97.4974838
2124,Over by ‘dere,,
2125,Unfortunately; Earth,,
2126,"Longmont, CO",40.1672068,-105.1019275
2127,"WV, USA   Almost heaven!",37.9183742,-82.0205321
2128,"Wrexham, Wales",53.04304,-2.992494
2129,Midwest U.S.,37.09024,-95.712891
2130,MX,37.5208017,-96.2114398
2131,Central Coast of California,36.9915398,-119.7889248
2132,"Montreal, Canada",45.5016889,-73.567256
2133,"Chicago-ish, Il",41.9651741,-87.6630019
2134,"Apex, North Carolina",35.732652,-78.85028559999999
2135,scum of the earth,39.7339127,-104.9996152
2136,Living just outside the lines.,,
2137,Dumfries and Galloway,55.0701073,-3.6052581
2138,"Birmingham, England",52.48624299999999,-1.890401
2139,"Nonbinary Ace, Them/Them Lad",,
2140,"Edina, MN",44.8896866,-93.3499489
2141,Wappinger Lenape land (NYC),40.7127753,-74.0059728
2142,Oakland... but I miss NYC,37.8016465,-122.2746936
2143,"Washington, DC / MD / VA",38.9071923,-77.0368707
2144,Back in the US OF A,,
2145,"Bethlehem, PA",40.6259316,-75.37045789999999
2146,"Loveland, CO",40.3977612,-105.0749801
2147,"Key West, FL",24.5550593,-81.7799871
2148,GTFOH,,
2149,Indonesia,-0.789275,113.921327
2150,Ryan Phillippe’s World! 😍😘,,
2151,"Pacific Northwest, BC Canada",54.76844,-128.275454
2152,they/she | 20 | CA,36.778261,-119.4179324
2153,WNY ,42.880989,-78.806488
2154,Islamic Republic of Iran,32.427908,53.688046
2155,"Scotland, Europe",56.49067119999999,-4.2026458
2156,"Murfreesboro, TN",35.8456213,-86.39027
2157,"Monterey Bay Area, CA",36.8007413,-121.947311
2158,Tovaangar,,
2159,"Waterloo, Ontario",43.4642578,-80.5204096
2160,"Valencia, CA",34.419837,-118.5627013
2161,"Queen Creek, AZ",33.2580532,-111.6382138
2162,Noneyerbeeswax ;-p,,
2163,"Nueva York, USA",40.7127753,-74.0059728
2164,"Princeton, NJ",40.3572976,-74.6672226
2165,"East Coast, USA",37.09024,-95.712891
2166,AltUniverse,34.0756307,-118.2552062
2167,"NY, US",43.2994285,-74.21793260000001
2168,Chicago Suburbs,41.7435073,-88.0118473
2169,"Maywood, Ca.",33.9866807,-118.185349
2170,43215,39.9602601,-83.0092803
2171,Mycelium Network(East Coast),,
2172,"Matthews, NC",35.1168131,-80.72368039999999
2173,"Coeur d'Alene, ID",47.6734632,-116.7812225
2174,Just a primate on planet earth,,
2175,None of your business ,,
2176,"Bauxite, AR",34.5556489,-92.52127019999999
2177,SUNY Cortland,42.5990019,-76.18779839999999
2178,"Denton, TX, USA",33.2148412,-97.13306829999999
2179,"Surrey, UK",51.31475930000001,-0.5599501
2180,Gallifrey,,
2181,probably speeding,,
2182,"East Islip, NY",40.7320429,-73.1856703
2183,Big Rock,36.6209229,-94.3271082
2184,Northern Hemisphere,43.214231,-77.438898
2185,Purgatory,37.6299909,-107.8138996
2186,Homeless ,37.0856396,-94.5100251
2187,"Austin, TX, y'all",30.4897362,-97.68036
2188,Roman Reigns Island ,,
2189,🚫 No DMs unless I like you 🚫,,
2190,"Hull, Quebec ",45.428731,-75.71336579999999
2191,"Staines upon Thames, Surrey",51.43148,-0.515525
2192,"long beach, ca",33.7700504,-118.1937395
2193,"Long Island, NY, USA",40.789142,-73.13496099999999
2194,in his arms forever,,
2195,"Coconut Creek, FL",26.2517482,-80.17893509999999
2196,"Muskogee, OK",35.7478769,-95.3696909
2197,Paul Rudd's Attic,,
2198,"Isle of Palms, SC",32.8194131,-79.7343791
2199,"San Fernando Valley, CA",34.1825782,-118.4396756
2200,"Pretoria, South Africa",-25.7478676,28.2292712
2201,http://offthegrid.xxx,37.779696,-122.418163
2202,search: http://offthegrid.xxx ,,
2203,Milton Keynes,52.0406224,-0.7594171
2204,"The Bend, IN",44.0581728,-121.3153096
2205,Washington DC area,38.78430549999999,-77.0163025
2206,On the lam,43.143502,-80.266521
2207,"Delray Beach, FL",26.4614625,-80.0728201
2208,The 9th Circle,28.4222308,-81.3900898
2209,AD,40.7508483,-73.971874
2210,"North Myrtle Beach, SC",33.8160058,-78.680016
2211,"Siegen, Deutschland",50.8838492,8.020959099999999
2212,"Alberta, Canada",53.9332706,-116.5765035
2213,"Crescent City, FL",29.4302514,-81.51062879999999
2214,#ikdraageenmondkapje😷,,
2215,Hunny Island ,45.1787166,-79.69952909999999
2216,"Surf City, USA",34.4271121,-77.5460805
2217,"Buffalo,NY",42.88644679999999,-78.8783689
2218,"Fort Lauderdale, Florida",26.1224386,-80.13731740000001
2219,"Carrollton,TX",32.9756415,-96.8899636
2220,On the one and only earth we destroy.,,
2221,"Kill Devil Hills, NC",36.0307226,-75.6760101
2222,"Never Trumpville, Georgia",32.1656221,-82.9000751
2223,"Fremont, CA",37.5485396,-121.988583
2224,HeartlessLand,,
2225,"Rockville Centre, NY",40.65871380000001,-73.6412406
2226,"Reno, Nevada",39.5296329,-119.8138027
2227,Somewhere ,38.87563129999999,-77.006195
2228,Kuwait ,29.31166,47.481766
2229,Ennis Co. Clare,52.8474255,-8.988738399999999
2230,Ur moms house,32.7481852,-97.3605874
2231,Great Northwest,29.4864891,-98.6590753
2232,cameo.com/4yRltcFOcab,,
2233,"Rialto, CA",34.1064001,-117.3703235
2234,OH,40.4172871,-82.90712300000001
2235,Queen Creek,33.2580532,-111.6382138
2236,"Hollywood, Los Angeles",34.0928092,-118.3286614
2237,"3821 Main St, Culver City, CA",34.0248241,-118.3948025
2238,Westworld,33.6325146,-111.8869342
2239,"Williamsburg, Brooklyn",40.7081156,-73.9570696
2240,Connecticut / NYC,40.5039422,-74.24994989999999
2241,"Naperville, IL",41.7508391,-88.1535352
2242,P2X-3YZ,,
2243,My Safe Place ,30.7532719,-86.4366592
2244,Earth somewhere in Mississippi,32.3546679,-89.3985283
2245,Orange county,33.7174708,-117.8311428
2246,Silicon Valley,37.387474,-122.0575434
2247,Beautiful Canada 🇨🇦 ,,
2248,"Lake Travis, TX",30.4205138,-97.9102647
2249,"Lincoln, Nebraska",40.813616,-96.7025955
2250,Out here in the wasteland.,,
2251,"Housebound, like everyone else",,
2252,Republic of Mozambique,-18.665695,35.529562
2253,U.S.,37.09024,-95.712891
2254,"Newtown, Ct",41.4141116,-73.3035656
2255,Belly of The Beast,30.07982879999999,-95.4213687
2256,Myanmar,21.916221,95.955974
2257,middleofnowhere IL,39.3917586,-88.96037559999999
2258,"Harrisonburg, VA",38.4495688,-78.8689155
2259,"Arlington, NY",41.6959269,-73.89680249999999
2260,💜 in Montréal Ottawa Toronto,45.4164349,-75.6516858
2261,Tulsa,36.1539816,-95.99277500000001
2262,The Resistance ,33.8140467,-117.9231874
2263,"ÜT: 39.412829,-76.505886",30.2849185,-97.7340567
2264,Social distancing,,
2265,"Copenhagen, Denmark",55.6760968,12.5683372
2266,"Houston, MN",43.7632995,-91.5684764
2267,"Quincy, Illinois ",39.9356016,-91.4098726
2268,"Oak Cliff, TX",32.7203477,-96.8743083
2269,Cupertino,37.3229978,-122.0321823
2270,"Ledyard, CT",41.4456444,-72.0181743
2271,Wonderland,41.0719569,-73.7676719
2272,"Great Yarmouth, Norfolk ",52.598233,1.728047
2273,"Johnson City, TN",36.3134397,-82.3534727
2274,"aurora, CO",39.7294319,-104.8319195
2275,"Overland Park, KS",38.9822282,-94.6707917
2276,"South Lake Tahoe, CA",38.939926,-119.9771868
2277,"San Jose, CA, USA",37.3382082,-121.8863286
2278,Phoenix/Flagstaff.😷🛫🌲,33.4483771,-112.0740373
2279,"by the city, by the zoo",39.0068733,-94.5291644
2280,PCSP,42.510219,-83.6051157
2281,"Caledonia, Mississippi",33.6828918,-88.3244811
2282,"Denver, Colorado",39.7392358,-104.990251
2283,#atx,30.49833779999999,-97.7770683
2284,"Winfield, KS",37.2397486,-96.9955918
2285,Wakanda via the Milky way ,,
2286,suffolk uk,52.1872472,0.9707800999999999
2287,Alderaan,43.0505102,-87.90614219999999
2288,"Atlanta, Georgia USA",33.7489954,-84.3879824
2289,"Birmingham, Ala.",33.5185892,-86.8103567
2290,"Southold, NY",41.0801973,-72.4731529
2291,"Guaynabo, Puerto Rico",18.3615548,-66.11106819999999
2292,"Midland/Odessa, TX",31.9391746,-102.2522487
2293,PERU,-9.189967,-75.015152
2294,"Camano, WA",48.17398619999999,-122.5282138
2295,"Montana, USA",46.8796822,-110.3625658
2296,"Panama City Beach, FL",30.1765914,-85.8054879
2297,Sh!tty Bay - Canada,,
2298,"Champaign, IL",40.1164204,-88.2433829
2299,"Itasca, IL",41.9750287,-88.0072909
2300,"Lansing, Michigan, USA",42.732535,-84.5555347
2301,Seattle + Ireland + UK,47.6062095,-122.3320708
2302,Central Ohio,40.0154745,-82.99316069999999
2303,PHILIPPINES,12.879721,121.774017
2304,"Willard, OH",41.0531109,-82.7262906
2305,"Born in Brooklyn, live in Del.",40.6781784,-73.9441579
2306,"Stalham, England",52.774035,1.515419
2307,"Federal Way, WA",47.3223221,-122.3126222
2308,TN • TX,32.851545,-96.8181561
2309,"Ferndale, Michigan",42.4605917,-83.1346478
2310,"Citrus Springs, FL",28.9974771,-82.47065479999999
2311,"Boulder, CO",40.0149856,-105.2705456
2312,She/her | 28 | Louisiana,30.9842977,-91.96233269999999
2313,"Portland, OR | Denver, CO",39.6923439,-104.987163
2314,BrockU,43.1175731,-79.2476925
2315,"Harlem, NY",40.8115504,-73.9464769
2316,"Astoria, NY / New York City",40.7643574,-73.92346189999999
2317,"Central Coast, California",35.6368759,-120.6545022
2318,La Luna,37.3076417,-89.55234279999999
2319,Louisiana,30.9842977,-91.96233269999999
2320,Régime de Vichy 2.0,46.131859,3.425488
2321,"Lancaster, Pa.",40.0378755,-76.3055144
2322,"Nürnberg, Bayern",49.4521018,11.0766654
